Date,TimeStamp,Latitude,Longitude,Wind Direction,Wind Speed,Rudder Angle,Thruster Power,GPS Course,GPS Speed,Yaw,Pitch,Roll,Magnetometer Heading,Temperature,Pressure,Altitude,Accel_x,Accel_y,Accel_z,Gyro_x,Gyro_y,Gyro_z,Mag_x,Mag_y,Mag_z,Going to waypoint,Autopilot on?
21/11/2018 08:42:55,0.05,-5.839555,-35.201313,0.00,0.00,0.00,0.00,141.35,0.43,121.57,-3.22,1.00,72.42,29.60,1006.04,126.31,16.73,-4.02,257.03,-0.01,0.00,-0.02,30.51,-96.27,30.51,1,1
21/11/2018 08:42:55,0.29,-5.839555,-35.201313,0.00,0.00,90.00,0.00,141.35,0.43,137.53,-3.94,-2.98,74.59,29.60,1006.01,126.82,16.73,-4.02,257.03,0.00,0.00,-0.01,28.39,-95.44,28.39,1,1
00/00/2000 08:42:58,0.54,-5.839552,-35.201316,0.00,0.00,90.00,0.00,1000.00,-1.00,147.16,-4.04,-2.72,73.68,29.60,1006.04,127.57,16.73,-4.02,256.00,-0.01,0.00,-0.01,30.08,-96.27,30.08,1,1
21/11/2018 08:42:58,0.79,-5.839552,-35.201316,0.00,0.00,90.00,0.00,24.00,0.07,154.19,-4.16,-2.57,72.11,29.60,1006.01,127.32,16.73,-4.02,254.97,-0.01,0.00,-0.01,32.63,-96.68,32.63,1,1
21/11/2018 08:42:58,1.04,-5.839552,-35.201316,0.00,0.00,90.00,0.00,24.00,0.07,159.12,-4.28,-2.71,72.16,29.60,1005.98,127.32,15.71,-3.01,256.00,-0.00,0.00,-0.01,32.20,-95.44,32.20,1,1
21/11/2018 08:42:59,1.29,-5.839552,-35.201316,0.00,0.00,-90.00,0.00,24.00,0.07,162.71,-4.22,-2.79,73.53,29.60,1006.01,127.32,15.71,-3.01,256.00,-0.01,0.00,-0.01,30.08,-96.27,30.08,1,1
21/11/2018 08:42:59,1.54,-5.839552,-35.201316,0.00,0.00,-90.00,0.00,137.54,0.44,164.83,-4.16,-2.94,73.22,29.70,1005.98,127.32,16.73,-5.02,257.03,-0.02,0.00,-0.01,30.08,-95.02,30.08,1,1
21/11/2018 08:42:59,1.79,-5.839552,-35.201316,0.00,0.00,-90.00,0.00,137.54,0.44,165.99,-4.27,-2.72,72.58,29.70,1006.01,127.07,16.73,-5.02,258.06,-0.01,0.00,-0.02,31.36,-94.61,31.36,1,1
21/11/2018 08:43:00,2.04,-5.839553,-35.201316,0.00,0.00,-90.00,0.00,137.54,0.44,166.97,-4.20,-2.72,73.14,29.70,1006.07,127.32,16.73,-4.02,257.03,-0.00,0.00,-0.01,30.93,-96.27,30.93,1,1
21/11/2018 08:43:00,2.29,-5.839553,-35.201316,0.00,0.00,-90.00,0.00,213.85,0.85,169.76,-4.14,-2.75,75.48,29.70,1006.01,128.32,16.73,-6.02,259.09,-0.00,-0.00,-0.32,27.12,-97.10,27.12,1,1
21/11/2018 08:43:00,2.54,-5.839553,-35.201316,0.00,0.00,-90.00,0.00,213.85,0.85,169.20,-4.32,-2.56,74.75,29.60,1006.10,126.56,16.73,-3.01,256.00,-0.01,0.00,-0.01,28.39,-97.51,28.39,1,1
21/11/2018 08:43:00,2.79,-5.839553,-35.201316,0.00,0.00,-90.00,0.00,213.85,0.85,168.80,-4.10,-2.71,72.62,29.70,1006.16,126.56,17.74,-4.02,257.03,-0.01,0.00,-0.01,31.36,-95.02,31.36,1,1
21/11/2018 08:43:01,3.04,-5.839553,-35.201313,0.00,0.00,-90.00,0.00,213.85,0.85,169.09,-4.17,-2.64,73.78,29.70,1006.07,126.06,17.74,-4.02,254.97,-0.01,0.00,-0.02,29.66,-96.27,29.66,1,1
21/11/2018 08:43:01,3.29,-5.839553,-35.201313,0.00,0.00,-90.00,0.00,213.85,0.85,168.87,-4.27,-2.93,73.72,29.70,1006.04,126.82,17.74,-5.02,256.00,-0.00,0.00,-0.01,30.08,-97.10,30.08,1,1
21/11/2018 08:43:01,3.54,-5.839553,-35.201313,0.00,0.00,-90.00,0.00,90.36,0.39,168.65,-4.32,-2.79,73.74,29.70,1006.04,126.82,16.73,-4.02,254.97,0.00,0.00,-0.00,29.66,-95.02,29.66,1,1
21/11/2018 08:43:02,3.79,-5.839553,-35.201313,0.00,0.00,-90.00,0.00,90.36,0.39,168.45,-4.12,-2.87,72.59,29.70,1006.04,127.07,16.73,-4.02,256.00,0.00,0.00,-0.01,31.78,-95.85,31.78,1,1
21/11/2018 08:43:02,4.04,-5.839553,-35.201313,0.00,0.00,-90.00,0.00,85.57,0.39,168.57,-4.03,-2.60,73.47,29.70,1006.04,127.07,16.73,-5.02,254.97,-0.01,0.00,-0.01,30.08,-95.44,30.08,1,1
21/11/2018 08:43:02,4.29,-5.839553,-35.201313,0.00,0.00,-90.00,0.00,85.57,0.39,168.59,-2.94,-2.72,74.70,29.70,1006.10,126.56,17.74,-4.02,257.03,-0.00,0.00,-0.01,28.39,-95.85,28.39,1,1
21/11/2018 08:43:03,4.53,-5.839555,-35.201313,0.00,0.00,-90.00,0.00,85.57,0.39,168.32,-4.28,-2.80,73.58,29.70,1006.10,127.07,16.73,-5.02,256.00,-0.01,0.00,-0.01,30.51,-97.51,30.51,1,1
21/11/2018 08:43:03,4.78,-5.839555,-35.201313,0.00,0.00,-90.00,0.00,202.29,0.50,168.44,-4.26,-2.73,74.24,29.70,1006.07,126.82,15.71,-3.01,257.03,-0.01,0.00,-0.02,28.81,-95.44,28.81,1,1
21/11/2018 08:43:03,5.04,-5.839555,-35.201313,0.00,0.00,-90.00,0.00,202.29,0.50,168.38,-4.37,-2.66,72.70,29.70,1006.07,126.56,16.73,-4.02,256.00,-0.00,0.00,-0.02,31.36,-95.85,31.36,1,1
21/11/2018 08:43:03,5.28,-5.839555,-35.201313,0.00,0.00,-90.00,0.00,202.29,0.50,168.62,-4.26,-2.71,73.69,29.70,1006.07,127.07,16.73,-5.02,257.03,0.00,0.00,-0.01,30.08,-97.10,30.08,1,1
21/11/2018 08:43:04,5.53,-5.839555,-35.201320,0.00,0.00,-90.00,0.00,202.29,0.50,168.67,-4.25,-2.86,73.47,29.70,1006.10,126.82,16.73,-5.02,257.03,-0.00,0.00,-0.01,30.51,-97.10,30.51,1,1
21/11/2018 08:43:04,5.78,-5.839555,-35.201320,0.00,0.00,-90.00,0.00,19.82,0.07,168.68,-4.41,-2.58,74.02,29.70,1006.04,127.32,16.73,-4.02,256.00,-0.01,0.00,-0.01,29.66,-96.68,29.66,1,1
21/11/2018 08:43:04,6.03,-5.839555,-35.201320,0.00,0.00,-90.00,0.00,19.82,0.07,168.63,-4.18,-2.56,73.50,29.70,1006.01,126.82,17.74,-5.02,256.00,-0.00,0.00,-0.01,30.08,-95.44,30.08,1,1
21/11/2018 08:43:05,6.28,-5.839553,-35.201320,0.00,0.00,-90.00,0.00,19.82,0.07,168.54,-4.14,-2.95,73.96,29.70,1006.04,126.31,16.73,-4.02,256.00,-0.01,0.00,-0.02,29.66,-95.85,29.66,1,1
21/11/2018 08:43:05,6.53,-5.839553,-35.201320,0.00,0.00,-90.00,0.00,289.45,0.33,168.39,-4.18,-2.74,74.22,29.70,1006.07,125.56,16.73,-5.02,256.00,-0.01,0.00,-0.02,29.24,-97.10,29.24,1,1
21/11/2018 08:43:05,6.78,-5.839553,-35.201320,0.00,0.00,-90.00,0.00,289.45,0.33,168.46,-4.21,-2.57,73.00,29.70,1006.13,126.31,17.74,-5.02,254.97,-0.00,0.00,-0.02,31.36,-97.10,31.36,1,1
21/11/2018 08:43:06,7.03,-5.839552,-35.201324,0.00,0.00,-90.00,0.00,289.45,0.33,168.61,-4.37,-2.79,72.63,29.70,1006.13,126.56,16.73,-5.02,258.06,-0.01,0.00,-0.01,31.78,-95.85,31.78,1,1
21/11/2018 08:43:06,7.28,-5.839552,-35.201324,0.00,0.00,-90.00,0.00,289.45,0.33,168.80,-4.10,-2.70,73.36,29.70,1006.10,126.31,16.73,-4.02,256.00,-0.01,0.00,-0.01,30.51,-96.27,30.51,1,1
21/11/2018 08:43:06,7.53,-5.839552,-35.201324,0.00,0.00,-90.00,0.00,289.45,0.33,168.79,-4.15,-2.73,73.65,29.70,1006.01,126.56,17.74,-5.02,256.00,-0.00,0.00,-0.01,30.08,-96.27,30.08,1,1
21/11/2018 08:43:06,7.77,-5.839552,-35.201324,0.00,0.00,-90.00,0.00,254.98,0.93,168.76,-4.70,-2.81,72.98,29.70,1006.13,126.31,16.73,-4.02,256.00,-0.01,0.00,-0.02,31.36,-96.27,31.36,1,1
21/11/2018 08:43:07,8.02,-5.839550,-35.201328,0.00,0.00,-90.00,0.00,254.98,0.93,168.75,-4.00,-2.44,73.22,29.70,1006.19,126.31,16.73,-4.02,256.00,-0.00,0.00,-0.01,30.51,-95.44,30.51,1,1
21/11/2018 08:43:07,8.27,-5.839550,-35.201328,0.00,0.00,-90.00,0.00,246.83,0.57,168.90,-4.33,-2.72,74.50,29.70,1006.04,126.82,16.73,-5.02,254.97,-0.01,0.00,-0.02,28.81,-97.10,28.81,1,1
21/11/2018 08:43:07,8.52,-5.839550,-35.201328,0.00,0.00,-90.00,0.00,246.83,0.57,168.71,-4.38,-2.87,73.13,29.70,1006.16,126.56,15.71,-4.02,256.00,-0.00,0.00,-0.01,30.93,-96.27,30.93,1,1
21/11/2018 08:43:08,8.77,-5.839548,-35.201332,0.00,0.00,-90.00,0.00,246.83,0.57,168.63,-4.33,-2.64,74.22,29.70,1006.19,127.07,15.71,-4.02,256.00,-0.01,0.00,-0.00,29.24,-97.10,29.24,1,1
21/11/2018 08:43:08,9.02,-5.839548,-35.201332,0.00,0.00,-90.00,0.00,299.81,0.26,168.26,-4.29,-2.80,72.70,29.70,1006.13,126.31,15.71,-3.01,256.00,-0.00,0.00,-0.01,31.36,-95.85,31.36,1,1
21/11/2018 08:43:08,9.27,-5.839548,-35.201332,0.00,0.00,-90.00,0.00,299.81,0.26,168.60,-4.48,-2.80,72.67,29.70,1006.10,126.31,17.74,-6.02,257.03,-0.02,0.00,-0.01,31.78,-96.27,31.78,1,1
21/11/2018 08:43:09,9.52,-5.839545,-35.201332,0.00,0.00,-90.00,0.00,299.81,0.26,168.94,-4.23,-2.93,73.13,29.70,1006.16,126.31,16.73,-4.02,256.00,-0.01,0.00,-0.02,30.93,-96.27,30.93,1,1
21/11/2018 08:43:09,9.77,-5.839545,-35.201332,0.00,0.00,-90.00,0.00,30.88,0.46,168.97,-4.18,-2.73,73.24,29.70,1006.04,126.56,16.73,-4.02,256.00,-0.01,0.00,-0.02,30.93,-96.68,30.93,1,1
21/11/2018 08:43:09,10.02,-5.839545,-35.201332,0.00,0.00,-90.00,0.00,30.88,0.46,168.91,-4.30,-2.88,73.84,29.70,1006.13,126.56,17.74,-5.02,256.00,-0.01,0.00,-0.01,29.66,-95.85,29.66,1,1
21/11/2018 08:43:09,10.27,-5.839545,-35.201332,0.00,0.00,-90.00,0.00,30.88,0.46,168.72,-4.35,-2.79,73.90,29.70,1006.19,126.06,16.73,-3.01,256.00,-0.00,0.00,-0.01,29.66,-95.85,29.66,1,1
21/11/2018 08:43:10,10.52,-5.839542,-35.201335,0.00,0.00,-90.00,0.00,30.88,0.46,168.67,-4.11,-2.71,74.06,29.70,1006.19,126.31,16.73,-5.02,256.00,-0.01,0.00,-0.01,29.24,-96.27,29.24,1,1
21/11/2018 08:43:10,10.78,-5.839542,-35.201335,0.00,0.00,-90.00,0.00,338.01,0.44,168.56,-4.35,-2.72,73.20,29.70,1006.13,126.56,18.76,-4.02,253.94,-0.00,0.00,-0.01,30.93,-96.27,30.93,1,1
21/11/2018 08:43:10,11.03,-5.839542,-35.201335,0.00,0.00,-90.00,0.00,338.01,0.44,168.45,-3.83,-3.03,72.21,29.70,1006.19,125.31,15.71,-4.02,257.03,0.00,0.00,-0.01,32.63,-96.68,32.63,1,1
21/11/2018 08:43:11,11.28,-5.839540,-35.201335,0.00,0.00,-90.00,0.00,338.01,0.44,168.84,-4.12,-2.51,71.38,29.70,1006.01,126.56,16.73,-5.02,256.00,-0.00,0.00,-0.01,33.47,-95.44,33.47,1,1
21/11/2018 08:43:11,11.53,-5.839540,-35.201335,0.00,0.00,-90.00,0.00,338.01,0.44,169.37,-4.42,-2.85,72.25,29.70,1006.16,125.81,15.71,-5.02,254.97,-0.01,0.00,-0.02,32.20,-96.27,32.20,1,1
21/11/2018 08:43:11,11.78,-5.839540,-35.201335,0.00,0.00,-90.00,0.00,338.01,0.44,169.33,-4.42,-2.66,72.73,29.70,1006.13,126.31,16.73,-4.02,256.00,-0.01,0.00,-0.01,30.93,-95.02,30.93,1,1
21/11/2018 08:43:12,12.03,-5.839537,-35.201335,0.00,0.00,-90.00,0.00,338.01,0.44,169.41,-4.22,-3.72,73.61,29.70,1006.13,126.06,16.73,-5.02,257.03,-0.01,0.00,-0.01,30.93,-95.44,30.93,1,1
21/11/2018 08:43:12,12.28,-5.839537,-35.201335,0.00,0.00,-90.00,0.00,338.01,0.44,169.30,-4.38,-2.75,72.21,29.70,1006.19,126.06,17.74,-4.02,256.00,-0.01,0.00,-0.01,32.20,-95.85,32.20,1,1
21/11/2018 08:43:12,12.53,-5.839537,-35.201335,0.00,0.00,-90.00,0.00,338.01,0.44,169.45,-4.29,-2.79,72.29,29.70,1006.19,126.31,16.73,-5.02,256.00,-0.00,0.00,-0.01,32.63,-97.51,32.63,1,1
21/11/2018 08:43:12,12.78,-5.839537,-35.201335,0.00,0.00,-90.00,0.00,338.01,0.44,169.51,-4.47,-2.86,72.70,29.70,1006.16,126.82,16.73,-5.02,256.00,0.00,0.00,-0.01,31.36,-96.27,31.36,1,1
21/11/2018 08:43:13,13.03,-5.839537,-35.201339,0.00,0.00,-90.00,0.00,338.01,0.44,169.46,-4.50,-2.84,72.18,29.70,1006.19,126.31,17.74,-5.02,258.06,-0.00,0.00,-0.01,31.78,-94.61,31.78,1,1
21/11/2018 08:43:13,13.29,-5.839537,-35.201339,0.00,0.00,-90.00,0.00,338.01,0.44,169.62,-4.28,-2.63,72.55,29.70,1006.25,125.06,17.74,-4.02,257.03,-0.01,0.00,-0.01,31.78,-96.27,31.78,1,1
21/11/2018 08:43:13,13.53,-5.839537,-35.201339,0.00,0.00,-90.00,0.00,338.01,0.44,169.69,-4.15,-3.05,72.33,29.70,1006.19,126.06,16.73,-4.02,253.94,-0.01,0.00,-0.01,31.78,-95.02,31.78,1,1
21/11/2018 08:43:14,13.78,-5.839537,-35.201343,0.00,0.00,-90.00,0.00,338.01,0.44,169.94,-3.71,-2.76,72.84,29.70,1006.13,126.82,18.76,-4.02,257.03,-0.00,0.00,-0.01,30.93,-95.44,30.93,1,1
21/11/2018 08:43:14,14.03,-5.839537,-35.201343,0.00,0.00,-90.00,0.00,254.47,0.65,169.68,-3.98,-2.87,72.06,29.80,1006.13,126.06,16.73,-5.02,254.97,-0.00,0.00,-0.01,32.63,-95.85,32.63,1,1
21/11/2018 08:43:14,14.28,-5.839537,-35.201343,0.00,0.00,-90.00,0.00,254.47,0.65,169.72,-4.19,-2.13,71.58,29.80,1006.28,124.81,26.87,-3.01,243.64,-0.01,0.03,-0.00,33.05,-95.02,33.05,1,1
21/11/2018 08:43:15,14.53,-5.839537,-35.201347,0.00,0.00,-90.00,0.00,254.47,0.65,169.82,-4.17,-4.95,72.99,29.80,1006.31,125.31,20.78,-4.02,249.82,0.01,-0.02,-0.01,31.78,-95.85,31.78,1,1
21/11/2018 08:43:15,14.78,-5.839537,-35.201347,0.00,0.00,-90.00,0.00,121.52,0.76,169.79,-4.60,-3.56,72.00,29.80,1006.22,125.06,14.70,-4.02,261.15,-0.01,0.01,-0.02,33.05,-96.27,33.05,1,1
21/11/2018 08:43:15,15.03,-5.839537,-35.201347,0.00,0.00,-90.00,0.00,121.52,0.76,169.76,-3.85,-3.11,71.86,29.80,1006.28,125.06,18.76,-5.02,253.94,0.00,0.00,-0.01,33.05,-97.10,33.05,1,1
21/11/2018 08:43:16,15.28,-5.839537,-35.201343,0.00,0.00,-90.00,0.00,121.52,0.76,169.91,-4.01,-2.70,72.54,29.80,1006.22,125.06,14.70,-3.01,259.09,0.00,0.01,-0.01,31.78,-95.85,31.78,1,1
21/11/2018 08:43:16,15.53,-5.839537,-35.201343,0.00,0.00,-90.00,0.00,121.52,0.76,169.82,-4.64,-2.79,72.10,29.80,1006.19,126.06,15.71,-4.02,259.09,-0.00,0.00,-0.01,31.78,-94.61,31.78,1,1
21/11/2018 08:43:16,15.78,-5.839537,-35.201343,0.00,0.00,-90.00,0.00,121.52,0.76,169.97,-4.17,-2.63,71.54,29.80,1006.28,125.06,18.76,-7.03,259.09,-0.01,0.00,-0.00,33.05,-95.02,33.05,1,1
21/11/2018 08:43:16,16.03,-5.839537,-35.201343,0.00,0.00,-90.00,0.00,214.84,0.28,170.18,-4.06,-3.77,72.02,29.80,1006.28,125.06,14.70,-4.02,251.88,-0.00,0.00,-0.01,32.63,-95.85,32.63,1,1
21/11/2018 08:43:17,16.28,-5.839537,-35.201351,0.00,0.00,-90.00,0.00,214.84,0.28,170.11,-4.33,-2.34,71.97,29.80,1006.37,125.06,18.76,-3.01,253.94,-0.01,0.00,-0.01,32.63,-95.85,32.63,1,1
21/11/2018 08:43:17,16.53,-5.839537,-35.201351,0.00,0.00,-90.00,0.00,287.47,1.00,170.16,-4.12,-2.71,71.99,29.80,1006.31,125.31,19.77,-3.01,254.97,-0.01,0.00,-0.01,32.63,-95.44,32.63,1,1
21/11/2018 08:43:17,16.78,-5.839537,-35.201351,0.00,0.00,-90.00,0.00,287.47,1.00,169.86,-4.24,-2.78,71.81,29.80,1006.28,125.31,15.71,-5.02,258.06,-0.01,0.00,-0.01,32.63,-94.19,32.63,1,1
21/11/2018 08:43:17,17.03,-5.839537,-35.201351,0.00,0.00,-90.00,0.00,287.47,1.00,169.91,-4.32,-2.62,71.78,29.80,1006.31,125.31,16.73,-5.02,254.97,-0.00,0.00,-0.01,32.63,-95.02,32.63,1,1
21/11/2018 08:43:17,17.28,-5.839537,-35.201351,0.00,0.00,-90.00,0.00,287.47,1.00,170.13,-4.12,-2.88,72.89,29.80,1006.28,125.56,16.73,-5.02,254.97,-0.01,0.00,-0.01,30.93,-95.85,30.93,1,1
21/11/2018 08:43:17,17.53,-5.839537,-35.201351,0.00,0.00,-90.00,0.00,287.47,1.00,169.93,-4.44,-2.89,71.55,29.80,1006.28,124.81,17.74,-5.02,256.00,-0.01,0.00,-0.01,33.05,-95.02,33.05,1,1
21/11/2018 08:43:19,17.78,-5.839535,-35.201351,0.00,0.00,-90.00,0.00,287.47,1.00,170.03,-4.23,-2.81,72.06,29.80,1006.28,125.06,17.74,-5.02,258.06,-0.00,0.00,-0.01,32.63,-96.27,32.63,1,1
21/11/2018 08:43:19,18.02,-5.839535,-35.201351,0.00,0.00,-90.00,0.00,287.47,1.00,170.11,-4.25,-2.67,72.71,29.80,1006.25,125.06,16.73,-3.01,252.91,-0.00,0.00,-0.01,31.36,-95.85,31.36,1,1
21/11/2018 08:43:19,18.27,-5.839535,-35.201351,0.00,0.00,-90.00,0.00,287.47,1.00,169.97,-4.10,-2.73,72.36,29.80,1006.25,125.56,17.74,-4.02,254.97,-0.00,0.00,-0.01,32.20,-96.68,32.20,1,1
21/11/2018 08:43:19,18.52,-5.839535,-35.201351,0.00,0.00,-90.00,0.00,287.47,1.00,170.05,-4.30,-2.66,72.00,29.80,1006.31,125.56,17.74,-4.02,257.03,-0.01,0.00,-0.01,32.63,-95.85,32.63,1,1
21/11/2018 08:43:20,18.77,-5.839533,-35.201351,0.00,0.00,-90.00,0.00,287.47,1.00,170.02,-4.27,-2.92,72.00,29.80,1006.22,125.56,15.71,-4.02,253.94,-0.00,0.00,-0.01,32.20,-94.61,32.20,1,1
21/11/2018 08:43:20,19.01,-5.839533,-35.201351,0.00,0.00,-90.00,0.00,49.56,0.91,170.05,-4.65,-3.45,71.90,29.80,1006.31,125.56,69.45,-14.05,283.81,-0.04,-0.06,-0.02,32.63,-95.44,32.63,1,1
21/11/2018 08:43:20,19.26,-5.839533,-35.201351,0.00,0.00,-90.00,0.00,49.56,0.91,170.12,-4.82,-5.39,74.56,29.80,1006.34,126.06,16.73,-4.02,253.94,-0.00,0.00,-0.02,31.36,-95.44,31.36,1,1
21/11/2018 08:43:21,19.52,-5.839533,-35.201343,0.00,0.00,-90.00,0.00,49.56,0.91,169.63,-4.11,-2.71,72.02,29.80,1006.31,124.31,15.71,-4.02,254.97,-0.01,0.00,-0.02,32.63,-95.85,32.63,1,1
21/11/2018 08:43:21,19.76,-5.839533,-35.201343,0.00,0.00,-90.00,0.00,49.56,0.91,169.79,-4.08,-2.93,73.18,29.80,1006.28,124.81,15.71,-4.02,252.91,-0.01,0.00,-0.02,30.51,-96.27,30.51,1,1
21/11/2018 08:43:21,20.01,-5.839533,-35.201343,0.00,0.00,-90.00,0.00,49.56,0.91,169.74,-4.37,-2.83,71.38,29.70,1006.25,125.06,19.77,-4.02,259.09,-0.00,0.01,-0.01,33.05,-94.61,33.05,1,1
21/11/2018 08:43:22,20.27,-5.839533,-35.201335,0.00,0.00,-90.00,0.00,66.62,1.43,169.95,-4.70,-5.03,72.40,29.70,1006.31,125.31,17.74,-3.01,257.03,-0.01,0.01,-0.01,31.78,-95.44,31.78,1,1
21/11/2018 08:43:22,20.51,-5.839533,-35.201335,0.00,0.00,-90.00,0.00,66.62,1.43,169.99,-3.55,-2.23,71.98,29.80,1006.31,124.56,17.74,-4.02,253.94,-0.01,0.00,-0.01,33.05,-96.68,33.05,1,1
21/11/2018 08:43:22,20.76,-5.839533,-35.201335,0.00,0.00,-90.00,0.00,66.62,1.43,169.99,-4.13,-2.65,72.72,29.80,1006.31,125.06,18.76,-6.02,253.94,-0.01,0.00,-0.01,31.36,-95.85,31.36,1,1
21/11/2018 08:43:22,21.02,-5.839533,-35.201335,0.00,0.00,-90.00,0.00,66.62,1.43,169.94,-4.41,-2.85,71.44,29.70,1006.31,124.81,15.71,-4.02,253.94,-0.00,0.00,-0.02,33.90,-96.27,33.90,1,1
21/11/2018 08:43:23,21.26,-5.839532,-35.201332,0.00,0.00,-90.00,0.00,66.62,1.43,170.07,-4.30,-2.95,72.30,29.70,1006.25,125.06,16.73,-4.02,254.97,0.00,0.00,-0.01,31.78,-95.44,31.78,1,1
21/11/2018 08:43:23,21.51,-5.839532,-35.201332,0.00,0.00,-90.00,0.00,75.54,2.19,169.81,-4.02,-2.74,71.89,29.80,1006.31,125.06,16.73,-5.02,257.03,-0.01,0.00,-0.01,33.05,-96.68,33.05,1,1
21/11/2018 08:43:23,21.77,-5.839532,-35.201332,0.00,0.00,-90.00,0.00,75.54,2.19,169.96,-4.39,-3.02,72.02,29.70,1006.37,124.81,15.71,-5.02,256.00,-0.00,0.00,-0.01,32.20,-95.02,32.20,1,1
21/11/2018 08:43:24,22.02,-5.839530,-35.201332,0.00,0.00,-90.00,0.00,75.54,2.19,169.95,-4.21,-2.48,71.92,29.70,1006.25,125.06,16.73,-5.02,257.03,-0.00,0.00,-0.01,32.63,-95.85,32.63,1,1
21/11/2018 08:43:24,22.27,-5.839530,-35.201332,0.00,0.00,-90.00,0.00,83.66,0.80,170.05,-4.09,-2.88,72.60,29.70,1006.25,125.06,17.74,-6.02,256.00,-0.00,0.00,-0.01,31.36,-95.44,31.36,1,1
21/11/2018 08:43:24,22.52,-5.839530,-35.201332,0.00,0.00,-90.00,0.00,83.66,0.80,169.90,-4.19,-2.66,72.80,29.70,1006.25,126.06,17.74,-5.02,254.97,-0.01,0.00,-0.01,31.36,-96.27,31.36,1,1
21/11/2018 08:43:25,22.77,-5.839530,-35.201335,0.00,0.00,-90.00,0.00,83.66,0.80,169.81,-4.19,-2.82,71.99,29.70,1006.25,125.31,17.74,-6.02,254.97,0.00,0.00,-0.01,32.63,-95.85,32.63,1,1
21/11/2018 08:43:25,23.02,-5.839530,-35.201335,0.00,0.00,-90.00,0.00,83.66,0.80,169.79,-4.13,-2.80,74.22,29.70,1006.22,125.31,16.73,-4.02,254.97,0.00,0.00,-0.01,29.24,-96.68,29.24,1,1
21/11/2018 08:43:25,23.27,-5.839530,-35.201335,0.00,0.00,-90.00,0.00,83.66,0.80,169.49,-4.17,-2.61,72.43,29.70,1006.22,125.31,15.71,-4.02,256.00,-0.01,0.00,-0.01,31.78,-95.85,31.78,1,1
21/11/2018 08:43:25,23.52,-5.839530,-35.201335,0.00,0.00,-90.00,0.00,83.66,0.80,169.52,-4.01,-2.33,71.66,29.70,1006.31,125.06,17.74,-5.02,254.97,-0.01,0.00,-0.01,32.63,-94.19,32.63,1,1
21/11/2018 08:43:26,23.77,-5.839532,-35.201343,0.00,0.00,-90.00,0.00,83.66,0.80,169.77,-4.20,-2.64,72.32,29.70,1006.25,125.06,15.71,-3.01,258.06,-0.00,-0.00,-0.01,31.78,-95.02,31.78,1,1
21/11/2018 08:43:26,24.02,-5.839532,-35.201343,0.00,0.00,-90.00,0.00,83.66,0.80,169.81,-4.33,-2.80,71.66,29.70,1006.31,125.31,17.74,-4.02,257.03,-0.00,0.00,-0.01,33.05,-95.44,33.05,1,1
21/11/2018 08:43:26,24.27,-5.839532,-35.201343,0.00,0.00,-90.00,0.00,83.66,0.80,169.85,-4.31,-2.94,72.80,29.70,1006.34,124.81,17.74,-4.02,256.00,-0.00,0.00,-0.01,31.36,-96.27,31.36,1,1
21/11/2018 08:43:27,24.52,-5.839528,-35.201347,0.00,0.00,-90.00,0.00,83.66,0.80,169.78,-4.24,-2.79,71.56,29.70,1006.22,125.06,17.74,-5.02,256.00,0.00,0.00,-0.01,33.47,-95.85,33.47,1,1
21/11/2018 08:43:27,24.77,-5.839528,-35.201347,0.00,0.00,-90.00,0.00,16.82,0.48,169.64,-4.54,-3.04,73.87,29.70,1006.13,124.56,19.77,-6.02,254.97,-0.00,-0.01,-0.01,29.66,-95.85,29.66,1,1
21/11/2018 08:43:27,25.02,-5.839528,-35.201347,0.00,0.00,-90.00,0.00,16.82,0.48,169.54,-4.29,-3.09,72.49,29.70,1006.31,125.06,14.70,-3.01,257.03,-0.00,0.00,-0.02,31.78,-95.44,31.78,1,1
21/11/2018 08:43:28,25.27,-5.839522,-35.201351,0.00,0.00,-90.00,0.00,16.82,0.48,169.71,-4.08,-2.69,72.05,29.70,1006.28,124.56,17.74,-4.02,253.94,-0.00,0.00,-0.01,32.20,-95.44,32.20,1,1
21/11/2018 08:43:28,25.52,-5.839522,-35.201351,0.00,0.00,-90.00,0.00,16.82,0.48,169.73,-4.30,-2.81,71.80,29.70,1006.25,124.81,17.74,-4.02,256.00,-0.00,0.00,-0.01,33.05,-95.85,33.05,1,1
21/11/2018 08:43:28,25.77,-5.839522,-35.201351,0.00,0.00,-90.00,0.00,16.82,0.48,170.03,-4.13,-2.95,72.10,29.70,1006.31,125.06,16.73,-5.02,260.12,-0.00,0.00,-0.02,32.63,-96.27,32.63,1,1
21/11/2018 08:43:28,26.02,-5.839522,-35.201351,0.00,0.00,-90.00,0.00,16.82,0.48,170.02,-4.24,-3.00,72.21,29.70,1006.34,125.06,16.73,-5.02,258.06,-0.01,0.00,-0.01,32.20,-95.85,32.20,1,1
21/11/2018 08:43:29,26.27,-5.839513,-35.201354,0.00,0.00,-90.00,0.00,16.82,0.48,169.96,-4.71,-3.00,73.09,29.70,1006.34,125.31,14.70,-1.00,247.76,-0.05,0.00,-0.01,30.93,-97.10,30.93,1,1
21/11/2018 08:43:29,26.52,-5.839513,-35.201354,0.00,0.00,-90.00,0.00,330.35,0.39,169.84,-3.35,-0.78,72.63,29.70,1006.28,124.06,33.96,-6.02,227.15,-0.04,0.07,-0.04,31.78,-95.85,31.78,1,1
21/11/2018 08:43:29,26.77,-5.839513,-35.201354,0.00,0.00,-90.00,0.00,330.35,0.39,169.86,-4.54,-3.66,72.13,29.70,1006.25,125.06,15.71,-4.02,256.00,0.00,0.00,-0.01,33.05,-95.02,33.05,1,1
21/11/2018 08:43:30,27.02,-5.839508,-35.201358,0.00,0.00,-90.00,0.00,330.35,0.39,169.57,-3.77,-1.23,72.06,29.70,1006.40,124.56,27.88,-5.02,225.09,-0.01,0.04,-0.01,32.20,-95.44,32.20,1,1
21/11/2018 08:43:30,27.27,-5.839508,-35.201358,0.00,0.00,-90.00,0.00,260.47,0.37,169.70,-5.22,-3.75,72.53,29.70,1006.28,124.31,20.78,-3.01,246.73,0.00,0.00,-0.02,32.20,-95.44,32.20,1,1
21/11/2018 08:43:30,27.51,-5.839508,-35.201358,0.00,0.00,-90.00,0.00,260.47,0.37,169.69,-4.57,-3.45,72.55,29.70,1006.34,123.81,17.74,-7.03,256.00,-0.05,0.00,-0.00,31.78,-95.44,31.78,1,1
21/11/2018 08:43:31,27.76,-5.839505,-35.201358,0.00,0.00,-90.00,0.00,260.47,0.37,169.54,-5.19,-3.27,73.66,29.70,1006.28,125.06,19.77,-16.06,260.12,-0.05,0.00,-0.01,30.08,-96.27,30.08,1,1
21/11/2018 08:43:31,28.01,-5.839505,-35.201358,0.00,0.00,-90.00,0.00,260.47,0.37,169.30,-5.80,-2.83,71.73,29.70,1006.28,124.56,17.74,-10.04,258.06,0.07,-0.02,-0.01,33.47,-96.68,33.47,1,1
21/11/2018 08:43:31,28.26,-5.839505,-35.201358,0.00,0.00,-90.00,0.00,260.47,0.37,169.75,-5.11,-3.21,71.84,29.70,1006.28,125.31,20.78,-8.03,257.03,-0.01,0.00,-0.00,32.63,-95.44,32.63,1,1
21/11/2018 08:43:31,28.51,-5.839505,-35.201358,0.00,0.00,-90.00,0.00,158.43,0.30,169.74,-5.57,-3.40,71.58,29.70,1006.40,124.31,20.78,-12.05,261.15,-0.04,0.01,0.01,33.47,-95.85,33.47,1,1
21/11/2018 08:43:32,28.76,-5.839507,-35.201366,0.00,0.00,-90.00,0.00,158.43,0.30,169.86,-5.32,-3.30,72.04,29.70,1006.37,124.81,18.76,-8.03,256.00,-0.03,0.01,-0.01,32.63,-95.44,32.63,1,1
21/11/2018 08:43:32,29.01,-5.839507,-35.201366,0.00,0.00,-90.00,0.00,285.85,0.46,169.89,-6.22,-2.92,72.27,29.70,1006.37,125.06,18.76,-7.03,252.91,-0.03,0.00,-0.01,32.20,-96.27,32.20,1,1
21/11/2018 08:43:32,29.26,-5.839507,-35.201366,0.00,0.00,-90.00,0.00,285.85,0.46,170.23,-4.80,-3.03,72.02,29.70,1006.34,124.56,17.74,-10.04,256.00,-0.02,0.00,-0.01,32.63,-95.85,32.63,1,1
21/11/2018 08:43:33,29.51,-5.839510,-35.201377,0.00,0.00,-90.00,0.00,285.85,0.46,169.60,-6.17,-2.93,74.00,29.70,1006.34,124.31,17.74,-10.04,256.00,-0.02,0.00,-0.01,29.66,-97.51,29.66,1,1
21/11/2018 08:43:33,29.76,-5.839510,-35.201377,0.00,0.00,-90.00,0.00,247.09,0.87,169.11,-6.09,-3.13,73.20,29.70,1006.28,125.56,21.80,-15.06,253.94,0.01,-0.01,0.02,30.93,-97.93,30.93,1,1
21/11/2018 08:43:33,30.01,-5.839510,-35.201377,0.00,0.00,-90.00,0.00,247.09,0.87,168.89,-6.38,-3.22,73.27,29.80,1006.31,124.56,20.78,-18.07,258.06,-0.03,0.00,0.00,31.36,-98.34,31.36,1,1
21/11/2018 08:43:34,30.26,-5.839510,-35.201385,0.00,0.00,-90.00,0.00,247.09,0.87,169.06,-6.55,-3.19,73.50,29.70,1006.31,124.81,16.73,-16.06,261.15,0.03,0.00,-0.02,30.93,-98.76,30.93,1,1
21/11/2018 08:43:34,30.51,-5.839510,-35.201385,0.00,0.00,-90.00,0.00,247.09,0.87,168.83,-6.58,-2.76,73.27,29.80,1006.28,124.81,13.69,-12.05,249.82,-0.14,0.02,0.03,30.51,-97.10,30.51,1,1
21/11/2018 08:43:34,30.76,-5.839510,-35.201385,0.00,0.00,-90.00,0.00,247.09,0.87,168.71,-7.14,-2.94,74.80,29.80,1006.31,125.06,15.71,-19.07,258.06,0.01,0.00,-0.01,27.97,-99.17,27.97,1,1
21/11/2018 08:43:34,31.01,-5.839510,-35.201385,0.00,0.00,-90.00,0.00,247.09,0.87,168.58,-3.30,1.31,73.26,29.80,1006.25,124.81,-1.52,54.21,232.31,0.49,0.53,-0.02,30.51,-96.68,30.51,1,1
21/11/2018 08:43:35,31.26,-5.839513,-35.201393,0.00,0.00,-90.00,0.00,247.09,0.87,168.77,-0.52,-0.43,72.46,29.80,1006.31,124.81,20.78,-5.02,252.91,-0.01,-0.01,-0.01,30.93,-95.85,30.93,1,1
21/11/2018 08:43:35,31.51,-5.839513,-35.201393,0.00,0.00,-90.00,0.00,211.01,0.50,168.89,-4.41,-2.79,73.43,29.80,1006.34,124.31,26.87,-8.03,248.79,-0.01,0.02,-0.02,30.51,-97.10,30.51,1,1
21/11/2018 08:43:35,31.76,-5.839513,-35.201393,0.00,0.00,-90.00,0.00,211.01,0.50,168.92,-4.73,-3.62,72.64,29.80,1006.31,125.31,17.74,-7.03,254.97,-0.00,0.00,-0.01,32.20,-95.85,32.20,1,1
21/11/2018 08:43:36,32.01,-5.839517,-35.201396,0.00,0.00,-90.00,0.00,211.01,0.50,169.05,-4.56,-3.13,72.57,29.80,1006.37,124.06,17.74,-7.03,257.03,-0.01,0.00,-0.01,31.36,-95.02,31.36,1,1
21/11/2018 08:43:36,32.26,-5.839517,-35.201396,0.00,0.00,-90.00,0.00,211.01,0.50,169.16,-4.71,-2.94,73.31,29.80,1006.40,124.31,15.71,-2.01,256.00,-0.01,0.00,-0.01,30.51,-96.68,30.51,1,1
21/11/2018 08:43:36,32.51,-5.839517,-35.201396,0.00,0.00,-81.00,0.00,211.01,0.50,172.08,-3.53,-4.04,73.35,29.80,1006.34,124.56,27.88,11.04,273.51,0.01,-0.00,-0.46,30.51,-96.68,30.51,1,1
21/11/2018 08:43:37,32.76,-5.839513,-35.201396,0.00,0.00,56.00,0.00,211.01,0.50,171.29,2.23,4.62,69.43,29.80,1006.31,125.06,15.71,-6.02,266.30,0.00,-0.00,0.02,37.71,-93.36,37.71,1,1
21/11/2018 08:43:37,33.02,-5.839513,-35.201396,0.00,0.00,90.00,0.00,211.01,0.50,171.92,-3.87,-2.58,70.10,29.80,1006.37,124.81,17.74,-2.01,253.94,-0.01,0.00,-0.02,35.17,-93.36,35.17,1,1
21/11/2018 08:43:37,33.27,-5.839513,-35.201396,0.00,0.00,90.00,0.00,211.01,0.50,172.24,-3.74,-2.66,68.72,29.80,1006.28,124.81,17.74,-2.01,256.00,-0.01,0.00,-0.02,37.29,-91.70,37.29,1,1
21/11/2018 08:43:37,33.52,-5.839513,-35.201396,0.00,0.00,90.00,0.00,211.01,0.50,172.41,-3.72,-3.09,71.43,29.80,1006.34,124.81,18.76,-1.00,256.00,-0.00,0.00,-0.01,33.05,-92.12,33.05,1,1
21/11/2018 08:43:38,33.77,-5.839505,-35.201393,0.00,0.00,90.00,0.00,211.01,0.50,172.16,-3.65,-3.00,69.08,29.80,1006.37,124.56,17.74,-2.01,254.97,-0.00,0.00,-0.01,36.86,-92.12,36.86,1,1
21/11/2018 08:43:38,34.02,-5.839505,-35.201393,0.00,0.00,90.00,0.00,211.01,0.50,172.17,-3.53,-2.61,69.05,29.80,1006.37,124.81,15.71,-2.01,260.12,-0.00,0.00,-0.01,37.29,-93.36,37.29,1,1
21/11/2018 08:43:38,34.27,-5.839505,-35.201393,0.00,0.00,90.00,0.00,211.01,0.50,172.57,-4.61,-1.79,69.88,29.80,1006.37,124.81,17.74,-2.01,253.94,-0.03,0.10,-0.03,34.75,-91.70,34.75,1,1
21/11/2018 08:43:39,34.52,-5.839502,-35.201393,0.00,0.00,90.00,0.00,211.01,0.50,173.60,-3.93,-2.49,70.59,29.80,1006.40,125.31,13.69,-5.02,265.27,0.03,-0.09,-0.10,33.90,-91.29,33.90,1,1
21/11/2018 08:43:39,34.77,-5.839502,-35.201393,0.00,0.00,90.00,0.00,187.23,0.17,174.56,-3.67,-2.52,67.49,29.80,1006.31,124.56,20.78,-8.03,258.06,-0.06,0.01,-0.15,38.98,-89.63,38.98,1,1
21/11/2018 08:43:39,35.02,-5.839502,-35.201393,0.00,0.00,90.00,0.00,187.23,0.17,176.74,-4.05,-4.69,64.04,29.80,1006.37,124.56,3.55,6.02,273.51,-0.03,-0.09,0.00,44.92,-88.80,44.92,1,1
21/11/2018 08:43:40,35.27,-5.839500,-35.201396,0.00,0.00,90.00,0.00,187.23,0.17,176.49,-0.69,-6.61,67.43,29.80,1006.34,124.06,13.69,-2.01,259.09,-0.03,-0.01,-0.01,38.98,-88.80,38.98,1,1
21/11/2018 08:43:40,35.52,-5.839500,-35.201396,0.00,0.00,90.00,0.00,187.23,0.17,175.48,-4.15,-0.33,64.82,29.80,1006.40,124.56,11.66,-4.02,262.18,-0.01,0.01,-0.01,42.80,-88.38,42.80,1,1
21/11/2018 08:43:40,35.77,-5.839500,-35.201396,0.00,0.00,90.00,0.00,187.23,0.17,175.87,-3.85,-1.96,67.24,29.80,1006.34,124.31,15.71,-4.02,253.94,-0.00,0.00,-0.02,38.56,-88.80,38.56,1,1
21/11/2018 08:43:40,36.02,-5.839500,-35.201396,0.00,0.00,90.00,0.00,187.23,0.17,175.83,-4.03,-2.18,65.46,29.80,1006.31,125.31,13.69,-5.02,258.06,-0.01,0.00,-0.01,41.53,-87.97,41.53,1,1
21/11/2018 08:43:41,36.27,-5.839497,-35.201396,0.00,0.00,90.00,0.00,187.23,0.17,175.85,-4.55,-1.75,66.35,29.80,1006.28,125.06,13.69,-5.02,254.97,-0.01,0.00,-0.01,40.68,-89.63,40.68,1,1
21/11/2018 08:43:41,36.52,-5.839497,-35.201396,0.00,0.00,90.00,0.00,187.23,0.17,175.94,-4.36,-1.88,67.47,29.80,1006.31,124.81,14.70,-4.02,253.94,-0.00,0.00,-0.01,38.56,-89.63,38.56,1,1
21/11/2018 08:43:41,36.77,-5.839497,-35.201396,0.00,0.00,90.00,0.00,187.23,0.17,175.89,-4.15,-2.25,64.88,29.80,1006.28,124.56,14.70,-4.02,254.97,-0.00,0.00,-0.01,42.80,-88.80,42.80,1,1
21/11/2018 08:43:42,37.02,-5.839493,-35.201396,0.00,0.00,90.00,0.00,187.23,0.17,176.23,-4.31,-2.69,67.34,29.80,1006.34,125.06,14.70,-4.02,254.97,-0.01,0.00,-0.02,38.98,-89.21,38.98,1,1
21/11/2018 08:43:42,37.27,-5.839493,-35.201396,0.00,0.00,90.00,0.00,238.26,0.43,176.07,-4.33,-2.31,65.15,29.80,1006.28,125.06,3.55,-2.01,270.42,-0.01,0.02,-0.01,42.37,-88.80,42.37,1,1
21/11/2018 08:43:42,37.52,-5.839493,-35.201396,0.00,0.00,90.00,0.00,238.26,0.43,175.93,-4.21,-1.12,66.94,29.80,1006.31,125.56,13.69,-5.02,256.00,-0.01,0.00,-0.01,38.14,-88.38,38.14,1,1
21/11/2018 08:43:43,37.76,-5.839490,-35.201396,0.00,0.00,90.00,0.00,238.26,0.43,175.86,-4.26,-2.17,64.44,29.70,1006.22,125.56,15.71,-4.02,256.00,-0.01,-0.00,-0.01,42.80,-87.14,42.80,1,1
21/11/2018 08:43:43,38.02,-5.839490,-35.201396,0.00,0.00,90.00,0.00,238.26,0.43,176.13,-3.82,-1.89,65.56,29.80,1006.22,125.31,14.70,-4.02,257.03,0.00,0.00,-0.01,41.95,-88.80,41.95,1,1
21/11/2018 08:43:43,38.27,-5.839490,-35.201396,0.00,0.00,90.00,0.00,238.26,0.43,176.38,-2.23,-2.42,66.79,29.70,1006.25,125.06,11.66,-6.02,259.09,0.30,-0.00,-0.01,39.83,-89.21,39.83,1,1
21/11/2018 08:43:44,38.53,-5.839485,-35.201396,0.00,0.00,90.00,0.00,238.26,0.43,176.25,-4.22,-1.56,66.74,29.80,1006.25,125.81,13.69,-4.02,254.97,0.00,0.00,-0.01,40.25,-90.87,40.25,1,1
21/11/2018 08:43:44,38.78,-5.839485,-35.201396,0.00,0.00,90.00,0.00,238.26,0.43,176.25,-4.18,-2.04,64.51,29.80,1006.16,125.56,16.73,-5.02,252.91,-0.01,-0.00,-0.01,43.22,-88.38,43.22,1,1
21/11/2018 08:43:44,39.03,-5.839485,-35.201396,0.00,0.00,90.00,0.00,238.26,0.43,176.29,-3.89,-2.29,68.03,29.80,1006.28,124.81,15.71,-5.02,252.91,0.00,0.00,-0.01,38.56,-90.46,38.56,1,1
21/11/2018 08:43:44,39.29,-5.839485,-35.201396,0.00,0.00,90.00,0.00,238.26,0.43,176.03,-4.18,-2.20,67.60,29.80,1006.28,125.06,13.69,-5.02,254.97,0.00,0.00,-0.01,38.56,-88.80,38.56,1,1
21/11/2018 08:43:45,39.54,-5.839482,-35.201396,0.00,0.00,90.00,0.00,238.26,0.43,175.95,-4.25,-2.04,65.85,29.70,1006.22,125.06,14.70,-3.01,253.94,-0.01,0.00,-0.01,40.68,-87.97,40.68,1,1
21/11/2018 08:43:45,39.78,-5.839482,-35.201396,0.00,0.00,90.00,0.00,22.95,0.93,176.15,-4.16,-1.98,65.36,29.70,1006.25,125.56,12.67,-4.02,259.09,-0.02,0.00,-0.01,42.37,-89.63,42.37,1,1
21/11/2018 08:43:45,40.03,-5.839482,-35.201396,0.00,0.00,90.00,0.00,22.95,0.93,176.52,-4.18,-1.98,67.33,29.70,1006.28,124.81,16.73,-4.02,252.91,-0.01,-0.00,-0.02,38.98,-90.04,38.98,1,1
21/11/2018 08:43:45,40.29,-5.839482,-35.201396,0.00,0.00,90.00,0.00,22.95,0.93,176.42,-4.29,-2.40,65.23,29.80,1006.19,125.06,13.69,-5.02,256.00,-0.00,0.00,-0.01,42.37,-88.80,42.37,1,1
21/11/2018 08:43:45,40.53,-5.839482,-35.201396,0.00,0.00,90.00,0.00,22.95,0.93,176.23,-4.39,-2.21,67.64,29.80,1006.22,124.81,13.69,-4.02,259.09,-0.00,0.00,-0.00,38.14,-88.80,38.14,1,1
21/11/2018 08:43:45,40.78,-5.839482,-35.201396,0.00,0.00,90.00,0.00,22.95,0.93,175.99,-4.18,-2.21,64.51,29.70,1006.22,125.06,14.70,-4.02,254.97,-0.01,-0.00,-0.01,42.80,-87.55,42.80,1,1
21/11/2018 08:43:47,41.04,-5.839478,-35.201400,0.00,0.00,90.00,0.00,19.57,0.83,175.97,-4.12,-2.13,66.85,29.80,1006.28,125.06,14.70,-4.02,256.00,-0.00,0.00,-0.01,39.83,-88.80,39.83,1,1
21/11/2018 08:43:47,41.28,-5.839478,-35.201400,0.00,0.00,90.00,0.00,19.57,0.83,175.89,-4.28,-2.41,65.23,29.80,1006.31,124.56,13.69,-5.02,256.00,-0.01,0.00,-0.01,42.37,-88.38,42.37,1,1
21/11/2018 08:43:47,41.54,-5.839478,-35.201400,0.00,0.00,90.00,0.00,19.57,0.83,176.27,-4.20,-2.04,64.88,29.80,1006.22,125.56,15.71,-4.02,254.97,-0.00,0.00,-0.01,42.37,-87.97,42.37,1,1
21/11/2018 08:43:47,41.79,-5.839478,-35.201400,0.00,0.00,90.00,0.00,19.57,0.83,176.46,-4.14,-2.34,67.24,29.80,1006.28,124.81,12.67,-3.01,256.00,-0.00,0.00,-0.01,39.41,-89.21,39.41,1,1
21/11/2018 08:43:48,42.03,-5.839477,-35.201400,0.00,0.00,90.00,0.00,19.57,0.83,176.30,-4.05,-1.82,65.20,29.80,1006.28,125.31,14.70,-5.02,256.00,-0.01,0.00,-0.01,41.95,-88.38,41.95,1,1
21/11/2018 08:43:48,42.29,-5.839477,-35.201400,0.00,0.00,90.00,0.00,1.71,0.61,176.54,-4.23,-2.24,68.54,29.80,1006.31,125.06,14.70,-6.02,256.00,-0.01,0.00,-0.02,36.86,-89.21,36.86,1,1
21/11/2018 08:43:48,42.54,-5.839477,-35.201400,0.00,0.00,90.00,0.00,1.71,0.61,176.13,-4.29,-2.12,65.46,29.80,1006.34,125.06,13.69,-4.02,256.00,-0.00,0.00,-0.01,41.95,-89.21,41.95,1,1
21/11/2018 08:43:49,42.78,-5.839475,-35.201400,0.00,0.00,90.00,0.00,1.71,0.61,176.08,-4.13,-2.05,65.85,29.80,1006.25,125.31,12.67,-5.02,257.03,-0.00,0.00,-0.01,40.68,-87.55,40.68,1,1
21/11/2018 08:43:49,43.03,-5.839475,-35.201400,0.00,0.00,90.00,0.00,1.71,0.61,176.26,-4.36,-2.13,66.94,29.80,1006.22,124.81,13.69,-4.02,256.00,-0.00,-0.00,-0.01,39.41,-89.63,39.41,1,1
21/11/2018 08:43:49,43.28,-5.839475,-35.201400,0.00,0.00,90.00,0.00,1.71,0.61,176.10,-4.08,-1.72,65.12,29.70,1006.31,125.06,15.71,-4.02,254.97,-0.01,0.05,-0.01,42.80,-90.04,42.80,1,1
21/11/2018 08:43:50,43.53,-5.839472,-35.201400,0.00,0.00,90.00,0.00,1.71,0.61,176.46,-4.43,-1.60,68.03,29.70,1006.25,125.31,16.73,-4.02,250.85,-0.01,0.00,-0.02,38.14,-89.21,38.14,1,1
21/11/2018 08:43:50,43.78,-5.839472,-35.201400,0.00,0.00,90.00,0.00,1.71,0.61,176.18,-4.17,-2.42,64.41,29.80,1006.31,125.06,12.67,-5.02,256.00,-0.01,-0.00,-0.01,43.64,-88.38,43.64,1,1
21/11/2018 08:43:50,44.04,-5.839472,-35.201400,0.00,0.00,90.00,0.00,1.71,0.61,176.54,-4.58,-1.94,63.88,29.70,1006.28,124.06,10.65,-4.02,263.21,-0.01,0.00,-0.01,44.07,-87.97,44.07,1,1
21/11/2018 08:43:50,44.29,-5.839472,-35.201400,0.00,0.00,90.00,0.00,1.71,0.61,176.53,-4.03,-1.67,65.69,29.80,1006.34,125.06,14.70,-4.02,252.91,-0.00,0.00,-0.01,41.53,-89.21,41.53,1,1
21/11/2018 08:43:51,44.53,-5.839470,-35.201400,0.00,0.00,90.00,0.00,1.71,0.61,176.41,-4.39,-2.12,65.12,29.80,1006.22,125.31,16.73,-4.02,259.09,-0.00,0.00,-0.01,42.80,-89.63,42.80,1,1
21/11/2018 08:43:51,44.78,-5.839470,-35.201400,0.00,0.00,90.00,0.00,1.71,0.61,176.60,-4.17,-2.65,65.33,29.80,1006.19,124.81,12.67,-4.02,259.09,-0.01,0.00,-0.01,41.53,-87.55,41.53,1,1
21/11/2018 08:43:51,45.03,-5.839470,-35.201400,0.00,0.00,90.00,0.00,1.71,0.61,176.63,-4.26,-1.98,67.10,29.70,1006.31,125.31,13.69,-4.02,257.03,-0.00,0.00,-0.00,38.98,-88.80,38.98,1,1
21/11/2018 08:43:52,45.28,-5.839470,-35.201400,0.00,0.00,90.00,0.00,1.71,0.61,176.43,-4.28,-2.18,64.98,29.80,1006.25,125.06,14.70,-3.01,257.03,-0.00,0.00,-0.01,42.37,-88.38,42.37,1,1
21/11/2018 08:43:52,45.53,-5.839470,-35.201400,0.00,0.00,90.00,0.00,1.71,0.61,176.34,-4.04,-2.25,67.40,29.80,1006.28,125.06,16.73,-4.02,249.82,-0.00,0.00,-0.01,38.98,-89.21,38.98,1,1
21/11/2018 08:43:52,45.78,-5.839470,-35.201400,0.00,0.00,90.00,0.00,1.71,0.61,176.19,-4.48,-2.44,65.05,29.80,1006.22,125.06,16.73,-5.02,254.97,-0.01,-0.00,-0.01,43.22,-89.63,43.22,1,1
21/11/2018 08:43:53,46.03,-5.839470,-35.201400,0.00,0.00,90.00,0.00,1.71,0.61,176.18,-4.10,-2.36,66.19,29.80,1006.25,125.06,13.69,-4.02,256.00,-0.01,-0.00,-0.00,41.53,-89.63,41.53,1,1
21/11/2018 08:43:53,46.28,-5.839470,-35.201400,0.00,0.00,90.00,0.00,178.41,0.44,176.29,-4.12,-2.06,65.21,29.80,1006.19,125.56,19.77,-4.02,246.73,-0.00,0.00,-0.01,42.37,-89.21,42.37,1,1
21/11/2018 08:43:53,46.54,-5.839470,-35.201400,0.00,0.00,90.00,0.00,178.41,0.44,176.48,-4.09,-2.47,65.41,29.80,1006.22,125.81,19.77,-4.02,247.76,-0.00,-0.02,-0.01,41.95,-87.97,41.95,1,1
21/11/2018 08:43:53,46.78,-5.839470,-35.201400,0.00,0.00,90.00,0.00,178.41,0.44,176.23,-4.18,-2.78,67.46,29.80,1006.28,126.06,16.73,-4.02,252.91,-0.01,0.04,-0.01,39.83,-90.04,39.83,1,1
21/11/2018 08:43:54,47.03,-5.839470,-35.201400,0.00,0.00,90.00,0.00,178.41,0.44,176.17,-4.11,-2.60,65.18,29.80,1006.25,125.31,12.67,-6.02,263.21,-0.02,0.04,-0.01,42.37,-88.38,42.37,1,1
21/11/2018 08:43:54,47.29,-5.839470,-35.201400,0.00,0.00,90.00,0.00,221.83,0.81,176.42,-4.35,-2.67,67.49,29.80,1006.31,125.81,19.77,-2.01,229.22,-0.02,0.00,-0.00,36.86,-88.80,36.86,1,1
21/11/2018 08:43:54,47.53,-5.839470,-35.201400,0.00,0.00,90.00,0.00,221.83,0.81,176.24,-4.23,-2.49,65.35,29.80,1006.19,125.56,14.70,-6.02,261.15,-0.00,-0.00,-0.02,42.80,-89.21,42.80,1,1
21/11/2018 08:43:55,47.78,-5.839468,-35.201400,0.00,0.00,90.00,0.00,221.83,0.81,176.39,-4.40,-2.34,66.69,29.80,1006.22,125.81,15.71,-5.02,254.97,-0.00,-0.01,-0.01,40.68,-90.87,40.68,1,1
21/11/2018 08:43:55,48.04,-5.839468,-35.201400,0.00,0.00,90.00,0.00,229.83,0.19,176.31,-4.00,-2.53,65.38,29.80,1006.22,124.56,14.70,-5.02,254.97,-0.01,0.00,-0.01,41.95,-88.80,41.95,1,1
21/11/2018 08:43:55,48.28,-5.839468,-35.201400,0.00,0.00,90.00,0.00,229.83,0.19,176.47,-4.08,-2.44,64.92,29.80,1006.31,125.31,13.69,-4.02,256.00,-0.00,0.00,-0.01,42.80,-88.80,42.80,1,1
21/11/2018 08:43:56,48.53,-5.839468,-35.201396,0.00,0.00,90.00,0.00,229.83,0.19,176.71,-4.02,-2.08,66.58,29.80,1006.28,124.81,16.73,-5.02,256.00,-0.00,0.00,-0.01,39.83,-88.38,39.83,1,1
21/11/2018 08:43:56,48.79,-5.839468,-35.201396,0.00,0.00,90.00,0.00,229.83,0.19,176.50,-4.36,-2.09,65.21,29.80,1006.31,125.31,16.73,-3.01,252.91,-0.01,0.01,-0.02,42.37,-88.80,42.37,1,1
21/11/2018 08:43:56,49.03,-5.839468,-35.201396,0.00,0.00,90.00,0.00,229.83,0.19,176.38,-4.23,-2.29,66.69,29.80,1006.25,125.06,15.71,-5.02,256.00,-0.01,0.00,-0.01,40.25,-88.38,40.25,1,1
21/11/2018 08:43:56,49.28,-5.839468,-35.201396,0.00,0.00,90.00,0.00,175.08,0.30,176.41,-4.30,-2.30,65.18,29.80,1006.31,125.31,17.74,-4.02,251.88,-0.00,-0.00,-0.01,42.37,-88.80,42.37,1,1
21/11/2018 08:43:57,49.53,-5.839470,-35.201396,0.00,0.00,90.00,0.00,175.08,0.30,176.43,-4.39,-2.04,67.84,29.80,1006.25,124.81,8.62,-8.03,272.48,-0.03,0.07,-0.01,38.56,-89.63,38.56,1,1
21/11/2018 08:43:57,49.78,-5.839470,-35.201396,0.00,0.00,90.00,0.00,106.17,0.19,176.18,-4.36,-1.93,64.35,29.80,1006.34,124.31,12.67,-6.02,264.24,0.00,-0.02,-0.01,42.80,-87.97,42.80,1,1
21/11/2018 08:43:57,50.04,-5.839470,-35.201396,0.00,0.00,90.00,0.00,106.17,0.19,176.76,-3.40,-4.57,64.71,29.80,1006.25,124.56,6.59,-10.04,287.94,0.07,-0.10,0.00,42.80,-88.80,42.80,1,1
21/11/2018 08:43:58,50.28,-5.839472,-35.201396,0.00,0.00,90.00,0.00,106.17,0.19,176.46,-4.42,-1.68,65.85,29.80,1006.25,124.81,-5.58,-12.05,313.69,-0.07,0.09,-0.01,41.10,-88.38,41.10,1,1
21/11/2018 08:43:58,50.53,-5.839472,-35.201396,0.00,0.00,90.00,0.00,67.00,0.13,176.51,-4.72,-1.19,64.75,29.80,1006.34,124.31,19.77,-3.01,249.82,-0.01,0.00,-0.02,42.37,-89.63,42.37,1,1
21/11/2018 08:43:58,50.79,-5.839472,-35.201396,0.00,0.00,90.00,0.00,67.00,0.13,177.07,-3.11,-7.37,68.22,29.80,1006.25,124.81,-0.51,-2.01,288.97,0.04,-0.14,-0.03,38.98,-89.63,38.98,1,1
21/11/2018 08:43:59,51.03,-5.839468,-35.201396,0.00,0.00,90.00,0.00,67.00,0.13,176.31,-4.04,-2.23,64.09,29.80,1006.34,125.81,13.69,-5.02,261.15,-0.01,0.00,-0.01,43.22,-87.97,43.22,1,1
21/11/2018 08:43:59,51.28,-5.839468,-35.201396,0.00,0.00,90.00,0.00,0.71,0.31,176.60,-4.19,-2.07,65.76,29.80,1006.34,124.56,16.73,-4.02,250.85,-0.00,-0.00,-0.01,41.95,-90.04,41.95,1,1
21/11/2018 08:43:59,51.53,-5.839468,-35.201396,0.00,0.00,90.00,0.00,0.71,0.31,176.73,-4.18,-2.27,65.34,29.80,1006.28,124.56,12.67,-5.02,258.06,-0.00,0.00,-0.02,41.95,-88.38,41.95,1,1
21/11/2018 08:43:59,51.78,-5.839468,-35.201396,0.00,0.00,90.00,0.00,0.71,0.31,176.77,-4.22,-2.12,65.02,29.80,1006.19,124.81,12.67,-3.01,257.03,-0.01,0.00,-0.01,41.95,-87.97,41.95,1,1
21/11/2018 08:44:00,52.03,-5.839465,-35.201393,0.00,0.00,90.00,0.00,0.71,0.31,176.79,-4.21,-1.65,67.22,29.80,1006.40,124.56,13.69,-5.02,258.06,-0.00,0.00,-0.00,38.98,-89.21,38.98,1,1
21/11/2018 08:44:00,52.28,-5.839465,-35.201393,0.00,0.00,90.00,0.00,269.90,0.30,176.52,-4.31,-2.06,64.74,29.80,1006.34,124.06,10.65,-6.02,262.18,-0.00,-0.01,-0.01,42.37,-87.55,42.37,1,1
21/11/2018 08:44:00,52.53,-5.839465,-35.201393,0.00,0.00,90.00,0.00,269.90,0.30,176.70,-4.45,-1.80,67.50,29.80,1006.34,123.81,14.70,-5.02,258.06,-0.01,0.00,-0.01,38.14,-89.21,38.14,1,1
21/11/2018 08:44:01,52.78,-5.839462,-35.201393,0.00,0.00,90.00,0.00,269.90,0.30,176.32,-4.13,-2.25,65.54,29.80,1006.34,124.56,15.71,-6.02,256.00,-0.01,0.00,-0.01,41.53,-88.80,41.53,1,1
21/11/2018 08:44:01,53.02,-5.839462,-35.201393,0.00,0.00,90.00,0.00,269.90,0.30,176.25,-4.30,-2.21,65.29,29.80,1006.34,124.31,14.70,-3.01,254.97,-0.00,0.00,-0.01,41.95,-87.97,41.95,1,1
21/11/2018 08:44:01,53.28,-5.839462,-35.201393,0.00,0.00,90.00,0.00,269.90,0.30,176.51,-4.21,-2.29,64.68,29.80,1006.28,124.31,14.70,-5.02,254.97,-0.00,0.00,-0.01,43.22,-88.80,43.22,1,1
21/11/2018 08:44:02,53.53,-5.839458,-35.201393,0.00,0.00,90.00,0.00,223.68,0.50,176.44,-4.52,-2.26,65.67,29.80,1006.37,123.47,13.69,-5.02,256.00,-0.01,0.00,-0.02,41.53,-89.21,41.53,1,1
21/11/2018 08:44:02,53.77,-5.839458,-35.201393,0.00,0.00,90.00,0.00,223.68,0.50,176.42,-4.11,-2.04,65.15,29.80,1006.34,124.06,13.69,-4.02,262.18,-0.00,0.00,-0.01,42.37,-89.21,42.37,1,1
21/11/2018 08:44:02,54.03,-5.839458,-35.201393,0.00,0.00,90.00,0.00,223.68,0.50,176.64,-4.24,-1.87,64.75,29.80,1006.37,124.56,13.69,-3.01,254.97,-0.00,0.00,-0.01,42.80,-88.38,42.80,1,1
21/11/2018 08:44:02,54.28,-5.839458,-35.201393,0.00,0.00,90.00,0.00,223.68,0.50,176.84,-4.08,-2.35,67.21,29.80,1006.40,124.56,15.71,-5.02,257.03,-0.00,0.00,-0.02,39.41,-89.63,39.41,1,1
21/11/2018 08:44:03,54.52,-5.839455,-35.201393,0.00,0.00,90.00,0.00,223.68,0.50,176.37,-4.26,-2.21,64.30,29.80,1006.37,124.56,14.70,-5.02,256.00,-0.01,0.00,-0.01,43.64,-87.97,43.64,1,1
21/11/2018 08:44:03,54.78,-5.839455,-35.201393,0.00,0.00,90.00,0.00,39.41,0.43,176.59,-4.36,-2.27,65.58,29.80,1006.34,124.31,14.70,-5.02,258.06,-0.00,0.00,-0.02,41.95,-89.63,41.95,1,1
21/11/2018 08:44:03,55.03,-5.839455,-35.201393,0.00,0.00,90.00,0.00,39.41,0.43,176.67,-4.08,-2.43,65.03,29.80,1006.34,124.56,14.70,-4.02,254.97,-0.00,0.00,-0.01,42.37,-88.38,42.37,1,1
21/11/2018 08:44:04,55.28,-5.839450,-35.201389,0.00,0.00,90.00,0.00,39.41,0.43,176.82,-4.29,-1.95,65.36,29.80,1006.28,124.81,13.69,-5.02,254.97,-0.01,0.00,-0.01,41.53,-87.97,41.53,1,1
21/11/2018 08:44:04,55.54,-5.839450,-35.201389,0.00,0.00,90.00,0.00,37.84,0.70,176.86,-4.34,-1.91,64.63,29.80,1006.31,124.56,11.66,-4.02,257.03,-0.00,-0.00,-0.01,42.80,-87.97,42.80,1,1
21/11/2018 08:44:04,55.78,-5.839450,-35.201389,0.00,0.00,90.00,0.00,37.84,0.70,176.53,-4.33,-1.66,67.37,29.80,1006.37,125.06,11.66,-4.02,256.00,-0.01,0.00,-0.01,38.56,-89.21,38.56,1,1
21/11/2018 08:44:05,56.03,-5.839448,-35.201389,0.00,0.00,90.00,0.00,37.84,0.70,176.33,-3.98,-1.96,64.74,29.80,1006.37,125.31,16.73,-5.02,252.91,-0.00,0.00,-0.02,42.80,-88.80,42.80,1,1
21/11/2018 08:44:05,56.28,-5.839448,-35.201389,0.00,0.00,90.00,0.00,37.84,0.70,176.44,-4.22,-2.42,64.98,29.80,1006.25,124.56,14.70,-6.02,257.03,-0.01,0.00,-0.01,42.80,-88.38,42.80,1,1
21/11/2018 08:44:05,56.53,-5.839448,-35.201389,0.00,0.00,90.00,0.00,37.84,0.70,176.63,-4.32,-2.14,64.90,29.80,1006.34,124.81,13.69,-5.02,258.06,-0.01,0.00,-0.01,42.37,-87.97,42.37,1,1
21/11/2018 08:44:05,56.78,-5.839448,-35.201389,0.00,0.00,90.00,0.00,37.84,0.70,176.64,-4.36,-2.03,64.87,29.80,1006.31,125.06,13.69,-5.02,257.03,-0.01,0.00,-0.01,41.95,-87.14,41.95,1,1
21/11/2018 08:44:06,57.03,-5.839448,-35.201389,0.00,0.00,90.00,0.00,37.84,0.70,176.82,-4.24,-2.23,64.66,29.80,1006.31,125.06,15.71,-4.02,257.03,-0.01,0.00,-0.01,43.22,-88.80,43.22,1,1
21/11/2018 08:44:06,57.28,-5.839448,-35.201389,0.00,0.00,90.00,0.00,37.84,0.70,177.04,-4.16,-2.22,64.84,29.80,1006.28,124.81,11.66,-6.02,258.06,-0.00,0.00,-0.02,42.80,-88.38,42.80,1,1
21/11/2018 08:44:06,57.53,-5.839448,-35.201389,0.00,0.00,90.00,0.00,338.99,0.26,177.00,-4.14,-2.06,66.81,29.80,1006.31,124.81,15.71,-3.01,257.03,-0.00,0.00,-0.01,39.41,-88.80,39.41,1,1
21/11/2018 08:44:07,57.78,-5.839448,-35.201389,0.00,0.00,90.00,0.00,338.99,0.26,176.71,-4.26,-2.36,64.40,29.80,1006.34,124.81,13.69,-4.02,253.94,-0.01,0.00,-0.01,43.64,-88.38,43.64,1,1
21/11/2018 08:44:07,58.03,-5.839448,-35.201389,0.00,0.00,90.00,0.00,188.62,0.41,176.92,-4.19,-2.15,64.69,29.80,1006.25,124.56,14.70,-2.01,249.82,-0.01,0.01,-0.01,42.37,-87.14,42.37,1,1
21/11/2018 08:44:07,58.28,-5.839448,-35.201389,0.00,0.00,90.00,0.00,188.62,0.41,177.08,-4.29,-2.14,65.15,29.80,1006.40,124.56,14.70,-3.01,256.00,-0.01,0.00,-0.01,42.37,-88.80,42.37,1,1
21/11/2018 08:44:08,58.53,-5.839448,-35.201389,0.00,0.00,90.00,0.00,188.62,0.41,177.06,-3.95,-2.30,65.27,29.80,1006.37,124.31,12.67,-5.02,260.12,-0.00,-0.00,-0.01,42.37,-89.21,42.37,1,1
21/11/2018 08:44:08,58.78,-5.839448,-35.201389,0.00,0.00,90.00,0.00,188.62,0.41,176.91,-4.23,-2.40,64.91,29.80,1006.37,123.47,13.69,-4.02,259.09,-0.01,0.00,-0.00,42.80,-89.21,42.80,1,1
21/11/2018 08:44:08,59.03,-5.839448,-35.201389,0.00,0.00,90.00,0.00,188.62,0.41,177.06,-4.10,-1.88,65.36,29.80,1006.40,124.06,15.71,-4.02,256.00,-0.00,0.00,-0.01,42.37,-90.04,42.37,1,1
21/11/2018 08:44:08,59.28,-5.839448,-35.201389,0.00,0.00,90.00,0.00,188.62,0.41,176.74,-4.30,-2.23,66.57,29.80,1006.40,123.81,12.67,-5.02,256.00,-0.01,0.00,-0.01,39.83,-88.38,39.83,1,1
21/11/2018 08:44:09,59.53,-5.839448,-35.201389,0.00,0.00,90.00,0.00,188.62,0.41,176.46,-4.34,-2.25,64.54,29.80,1006.40,124.06,14.70,-5.02,257.03,0.00,0.00,-0.01,43.64,-89.63,43.64,1,1
21/11/2018 08:44:09,59.78,-5.839448,-35.201389,0.00,0.00,90.00,0.00,248.84,0.44,176.49,-4.11,-2.12,65.29,29.80,1006.37,124.31,13.69,-4.02,257.03,-0.01,0.00,-0.01,42.37,-89.63,42.37,1,1
21/11/2018 08:44:09,60.03,-5.839448,-35.201389,0.00,0.00,90.00,0.00,248.84,0.44,176.61,-4.48,-2.11,65.41,29.80,1006.40,123.81,11.66,-1.00,257.03,-0.01,-0.01,-0.01,41.53,-88.38,41.53,1,1
21/11/2018 08:44:10,60.28,-5.839450,-35.201389,0.00,0.00,90.00,0.00,248.84,0.44,176.46,-3.62,-1.71,65.25,29.80,1006.40,124.56,14.70,-3.01,252.91,-0.00,0.01,-0.01,41.95,-88.80,41.95,1,1
21/11/2018 08:44:10,60.53,-5.839450,-35.201389,0.00,0.00,90.00,0.00,86.84,0.20,176.63,-3.90,-1.96,65.42,29.80,1006.31,124.81,14.70,-4.02,258.06,-0.00,0.01,-0.01,42.37,-90.04,42.37,1,1
21/11/2018 08:44:10,60.78,-5.839450,-35.201389,0.00,0.00,90.00,0.00,86.84,0.20,173.94,-4.12,-2.52,64.99,29.80,1006.28,125.56,13.69,-2.01,252.91,-0.01,0.00,-0.01,42.80,-89.21,42.80,1,1
21/11/2018 08:44:11,61.03,-5.839450,-35.201385,0.00,0.00,90.00,0.00,86.84,0.20,174.73,-3.49,-1.87,66.29,29.80,1006.25,125.31,7.60,1.00,258.06,-0.01,-0.01,-0.01,39.41,-86.72,39.41,1,1
21/11/2018 08:44:11,61.27,-5.839450,-35.201385,0.00,0.00,90.00,0.00,86.84,0.20,175.25,-3.30,-0.72,64.64,29.80,1006.25,125.56,8.62,-3.01,262.18,0.00,0.02,-0.02,42.80,-88.80,42.80,1,1
21/11/2018 08:44:11,61.52,-5.839450,-35.201385,0.00,0.00,90.00,0.00,86.84,0.20,175.78,-4.28,-1.40,65.50,29.80,1006.34,125.06,15.71,-2.01,254.97,-0.00,0.00,-0.01,41.53,-89.63,41.53,1,1
21/11/2018 08:44:11,61.78,-5.839450,-35.201385,0.00,0.00,90.00,0.00,79.82,0.37,176.18,-3.69,-2.52,64.32,29.80,1006.19,125.81,14.70,-6.02,261.15,-0.00,-0.00,-0.01,43.22,-87.14,43.22,1,1
21/11/2018 08:44:12,62.02,-5.839452,-35.201385,0.00,0.00,90.00,0.00,79.82,0.37,176.60,-4.14,-2.31,65.56,29.80,1006.19,124.81,16.73,-4.02,250.85,-0.00,-0.01,-0.01,41.53,-88.80,41.53,1,1
21/11/2018 08:44:12,62.27,-5.839452,-35.201385,0.00,0.00,90.00,0.00,29.37,0.50,176.61,-4.04,-1.85,66.11,29.80,1006.25,124.81,16.73,-3.01,248.79,-0.01,0.01,-0.01,41.10,-89.21,41.10,1,1
21/11/2018 08:44:12,62.53,-5.839452,-35.201385,0.00,0.00,90.00,0.00,29.37,0.50,176.67,-4.46,-1.97,64.87,29.80,1006.22,125.06,25.85,-7.03,250.85,-0.00,0.02,-0.02,42.80,-88.38,42.80,1,1
21/11/2018 08:44:13,62.77,-5.839452,-35.201381,0.00,0.00,90.00,0.00,29.37,0.50,-166.07,1.18,-6.52,52.74,29.80,1006.22,126.06,84.66,-32.13,307.51,0.29,-0.30,-1.27,58.05,-71.78,58.05,1,1
21/11/2018 08:44:13,63.02,-5.839452,-35.201381,0.00,0.00,90.00,0.00,102.26,0.39,-136.76,1.35,-16.59,18.22,29.80,1006.28,125.06,43.09,-33.13,232.31,0.08,-0.86,-1.85,92.37,-26.14,92.37,1,1
21/11/2018 08:44:13,63.28,-5.839452,-35.201381,0.00,0.00,90.00,0.00,102.26,0.39,-105.51,4.65,-12.12,-24.60,29.70,1006.22,125.81,50.19,71.28,198.31,-0.03,-0.30,-1.65,92.37,40.25,92.37,1,1
21/11/2018 08:44:14,63.52,-5.839453,-35.201377,0.00,0.00,90.00,0.00,102.26,0.39,-85.67,16.53,-6.17,-45.28,29.70,1006.25,125.56,24.84,75.29,246.73,-0.13,-0.19,-0.70,73.73,71.78,73.73,1,1
21/11/2018 08:44:14,63.77,-5.839453,-35.201377,0.00,0.00,90.00,0.00,102.26,0.39,-73.80,2.14,1.85,-55.24,29.70,1006.25,125.56,-12.67,48.19,273.51,-0.32,-0.08,-0.27,58.90,85.06,58.90,1,1
21/11/2018 08:44:14,64.02,-5.839453,-35.201377,0.00,0.00,90.00,0.00,102.26,0.39,-81.53,9.25,6.28,-47.81,29.70,1006.19,125.31,-28.90,30.12,250.85,0.13,0.44,0.85,65.68,75.93,65.68,1,1
21/11/2018 08:44:14,64.27,-5.839453,-35.201377,0.00,0.00,90.00,0.00,102.26,0.39,-102.83,6.51,14.33,-21.06,29.70,1006.10,126.82,-29.91,11.04,241.58,-0.38,0.68,1.60,86.44,38.59,86.44,1,1
21/11/2018 08:44:15,64.52,-5.839453,-35.201381,0.00,0.00,90.00,0.00,102.26,0.39,-126.20,-4.57,2.67,12.06,29.70,1006.13,125.81,62.35,9.04,285.88,-0.28,0.02,1.58,85.59,-17.84,85.59,1,1
21/11/2018 08:44:15,64.77,-5.839453,-35.201381,0.00,0.00,90.00,0.00,351.14,2.28,-144.75,-5.39,-13.28,36.13,29.70,1006.19,125.31,88.71,11.04,279.69,0.04,-0.11,0.70,75.42,-51.45,75.42,1,1
21/11/2018 08:44:15,65.02,-5.839453,-35.201381,0.00,0.00,90.00,0.00,351.14,2.28,-150.58,-1.76,-10.43,45.67,29.70,1006.25,125.81,57.28,10.04,270.42,-0.10,0.13,0.12,68.22,-59.75,68.22,1,1
21/11/2018 08:44:16,65.27,-5.839453,-35.201381,0.00,0.00,90.00,0.00,351.14,2.28,-154.36,-2.69,-5.96,44.51,29.70,1006.22,125.81,7.60,17.07,266.30,0.05,0.10,-0.02,67.37,-59.75,67.37,1,1
21/11/2018 08:44:16,65.52,-5.839453,-35.201381,0.00,0.00,90.00,0.00,351.14,2.28,-158.81,-1.99,-3.77,44.74,29.70,1006.28,126.06,25.85,11.04,176.68,0.02,-0.35,0.00,66.95,-64.73,66.95,1,1
21/11/2018 08:44:16,65.77,-5.839453,-35.201381,0.00,0.00,90.00,0.00,164.96,1.74,-160.45,-1.22,-5.24,48.40,29.70,1006.19,125.31,19.77,-7.03,283.81,0.05,-0.06,-0.01,62.71,-65.98,62.71,1,1
21/11/2018 08:44:17,66.02,-5.839462,-35.201381,0.00,0.00,90.00,0.00,164.96,1.74,-162.26,-3.12,-4.47,45.20,29.70,1006.19,125.81,22.81,0.00,244.67,0.03,-0.00,-0.00,66.10,-64.73,66.10,1,1
21/11/2018 08:44:17,66.28,-5.839462,-35.201381,0.00,0.00,90.00,0.00,164.96,1.74,-162.65,-3.41,-3.20,45.63,29.70,1006.19,126.06,18.76,-9.04,278.66,0.01,-0.00,-0.01,66.53,-65.56,66.53,1,1
21/11/2018 08:44:17,66.53,-5.839462,-35.201381,0.00,0.00,90.00,0.00,164.96,1.74,-163.22,-3.68,-3.58,45.45,29.70,1006.16,125.56,21.80,-2.01,249.82,0.01,0.00,-0.01,65.25,-65.15,65.25,1,1
21/11/2018 08:44:17,66.78,-5.839462,-35.201381,0.00,0.00,90.00,0.00,164.96,1.74,-163.27,-4.04,-3.53,45.22,29.70,1006.16,125.56,21.80,-4.02,260.12,-0.02,0.00,-0.01,65.68,-64.32,65.68,1,1
21/11/2018 08:44:18,67.03,-5.839467,-35.201377,0.00,0.00,90.00,0.00,164.96,1.74,-163.36,-4.52,-3.80,45.57,29.70,1006.16,125.81,19.77,-4.02,257.03,-0.02,0.00,-0.00,66.10,-65.56,66.10,1,1
21/11/2018 08:44:18,67.28,-5.839467,-35.201377,0.00,0.00,9.00,0.00,164.96,1.74,-163.69,-4.16,-3.57,47.51,29.70,1006.19,125.31,19.77,-4.02,256.00,-0.01,0.00,-0.00,63.14,-66.80,63.14,1,1
21/11/2018 08:44:18,67.53,-5.839467,-35.201377,0.00,0.00,-90.00,0.00,164.96,1.74,-164.23,-4.45,-3.16,46.12,29.70,1006.16,125.31,21.80,0.00,248.79,-0.02,0.01,-0.01,65.68,-66.39,65.68,1,1
21/11/2018 08:44:19,67.78,-5.839470,-35.201370,0.00,0.00,-90.00,0.00,164.96,1.74,-164.63,-4.32,-3.64,47.31,29.70,1006.16,125.56,20.78,-7.03,258.06,-0.02,0.01,-0.01,63.98,-66.80,63.98,1,1
21/11/2018 08:44:19,68.03,-5.839470,-35.201370,0.00,0.00,-90.00,0.00,137.21,0.17,-164.68,-5.46,-2.76,47.75,29.70,1006.13,125.56,21.80,-5.02,254.97,-0.04,0.02,-0.02,63.14,-67.22,63.14,1,1
21/11/2018 08:44:19,68.28,-5.839470,-35.201370,0.00,0.00,-90.00,0.00,137.21,0.17,-164.81,-4.21,-3.69,47.94,29.70,1006.28,124.81,21.80,-6.02,260.12,-0.01,0.00,-0.01,62.29,-66.39,62.29,1,1
21/11/2018 08:44:20,68.53,-5.839473,-35.201370,0.00,0.00,-90.00,0.00,137.21,0.17,-164.99,-4.26,-3.74,46.97,29.70,1006.16,125.31,18.76,-6.02,259.09,0.00,0.00,-0.01,63.98,-66.39,63.98,1,1
21/11/2018 08:44:20,68.78,-5.839473,-35.201370,0.00,0.00,-90.00,0.00,49.02,0.17,-164.96,-4.05,-3.66,46.58,29.70,1006.22,124.81,14.70,-11.04,274.54,0.05,-0.04,-0.01,63.98,-66.39,63.98,1,1
21/11/2018 08:44:20,69.02,-5.839473,-35.201370,0.00,0.00,-90.00,0.00,49.02,0.17,-164.70,-4.25,-3.15,45.21,29.70,1006.28,125.81,19.77,-4.02,259.09,0.05,-0.03,-0.02,66.53,-66.39,66.53,1,1
21/11/2018 08:44:21,69.27,-5.839477,-35.201370,0.00,0.00,-90.00,0.00,49.02,0.17,-164.04,-3.95,-3.51,45.23,29.70,1006.25,125.06,7.60,2.01,273.51,-0.01,0.00,-0.01,66.53,-65.56,66.53,1,1
21/11/2018 08:44:21,69.52,-5.839477,-35.201370,0.00,0.00,-90.00,0.00,49.02,0.17,-163.62,-4.05,-3.37,44.76,29.70,1006.28,124.31,22.81,-1.00,244.67,-0.01,0.00,-0.01,66.10,-65.15,66.10,1,1
21/11/2018 08:44:21,69.77,-5.839477,-35.201370,0.00,0.00,-90.00,0.00,49.02,0.17,-163.35,-4.34,-3.52,45.44,29.70,1006.28,124.81,18.76,-6.02,270.42,-0.03,0.01,-0.01,66.53,-65.56,66.53,1,1
21/11/2018 08:44:21,70.02,-5.839477,-35.201370,0.00,0.00,-90.00,0.00,49.02,0.17,-163.23,-3.92,-3.59,45.58,29.70,1006.28,126.06,21.80,-3.01,256.00,0.01,-0.00,-0.02,66.10,-65.98,66.10,1,1
21/11/2018 08:44:22,70.27,-5.839478,-35.201366,0.00,0.00,-90.00,0.00,49.02,0.17,-162.75,-5.21,-1.88,45.54,29.70,1006.25,125.56,61.34,11.04,282.78,-0.19,0.26,-0.08,65.68,-65.15,65.68,1,1
21/11/2018 08:44:22,70.52,-5.839478,-35.201366,0.00,0.00,-90.00,0.00,271.83,0.54,-135.03,2.99,-13.31,23.81,29.70,1006.22,124.81,122.17,-64.25,226.12,0.12,-0.17,-2.27,84.75,-32.37,84.75,1,1
21/11/2018 08:44:22,70.77,-5.839478,-35.201366,0.00,0.00,-90.00,0.00,271.83,0.54,-98.08,-7.98,-11.65,-40.07,29.70,1006.28,124.56,-55.26,-23.09,274.54,0.06,0.04,-2.36,77.97,51.87,77.97,1,1
21/11/2018 08:44:22,71.02,-5.839478,-35.201366,0.00,0.00,-90.00,0.00,271.83,0.54,-66.54,-2.58,0.96,-68.84,29.70,1006.16,125.56,-5.58,40.16,218.91,0.17,-0.24,-1.40,37.29,96.27,37.29,1,1
21/11/2018 08:44:22,71.27,-5.839478,-35.201366,0.00,0.00,-90.00,0.00,271.83,0.54,-41.08,0.99,2.90,-93.15,29.70,1006.19,126.31,-38.02,47.18,222.00,-0.12,-0.28,-1.08,-6.78,107.88,-6.78,1,1
21/11/2018 08:44:22,71.52,-5.839478,-35.201366,0.00,0.00,-90.00,0.00,271.83,0.54,-21.64,1.16,-0.74,-106.58,29.70,1006.13,126.31,29.91,35.14,282.78,-0.11,-0.35,-0.74,-30.93,104.15,-30.93,1,1
21/11/2018 08:44:24,71.77,-5.839477,-35.201370,0.00,0.00,-90.00,0.00,271.83,0.54,-9.30,9.48,-5.58,-117.18,29.70,1006.19,126.31,22.81,51.20,227.15,0.49,-0.26,-0.31,-48.73,101.24,-48.73,1,1
21/11/2018 08:44:24,72.02,-5.839477,-35.201370,0.00,0.00,-90.00,0.00,4.25,1.96,-1.76,12.57,-2.42,-122.82,29.70,1006.10,126.56,17.74,71.28,268.36,0.03,0.24,-0.35,-60.17,99.17,-60.17,1,1
21/11/2018 08:44:24,72.27,-5.839477,-35.201370,0.00,0.00,-90.00,0.00,4.25,1.96,10.14,15.86,-8.50,-129.18,29.70,1006.19,126.31,17.74,101.40,235.40,0.07,-0.24,-0.51,-69.49,94.19,-69.49,1,1
21/11/2018 08:44:24,72.51,-5.839477,-35.201370,0.00,0.00,-77.00,0.00,4.25,1.96,12.84,20.14,-4.15,-134.02,29.70,1006.16,126.31,2.53,108.42,220.97,-0.04,0.07,-0.03,-77.54,89.63,-77.54,1,1
21/11/2018 08:44:25,72.76,-5.839473,-35.201370,0.00,0.00,-61.00,0.00,4.25,1.96,11.57,14.80,-3.20,-134.22,29.70,1006.13,125.81,37.01,78.31,244.67,-0.26,-0.10,0.23,-75.00,89.63,-75.00,1,1
21/11/2018 08:44:25,73.01,-5.839473,-35.201370,0.00,0.00,-48.00,0.00,354.32,0.39,11.85,12.10,-10.31,-133.12,29.70,1006.13,126.06,46.13,68.27,249.82,-0.03,-0.08,0.01,-70.76,90.87,-70.76,1,1
21/11/2018 08:44:25,73.26,-5.839473,-35.201370,0.00,0.00,-36.00,0.00,354.32,0.39,11.41,9.42,-9.01,-131.04,29.70,1006.13,126.56,60.32,51.20,242.61,-0.18,-0.02,0.10,-66.10,92.12,-66.10,1,1
21/11/2018 08:44:26,73.51,-5.839478,-35.201366,0.00,0.00,-23.00,0.00,354.32,0.39,10.30,8.83,-9.44,-129.00,29.70,1006.10,126.06,56.27,46.18,249.82,0.04,0.05,0.10,-61.44,92.95,-61.44,1,1
21/11/2018 08:44:26,73.75,-5.839478,-35.201366,0.00,0.00,-12.00,0.00,354.32,0.39,7.87,8.69,-9.88,-125.89,29.70,1006.16,126.56,45.12,56.22,247.76,0.06,0.13,0.13,-58.05,95.02,-58.05,1,1
21/11/2018 08:44:26,74.01,-5.839478,-35.201366,0.00,0.00,-3.00,0.00,354.32,0.39,8.05,10.01,-10.23,-124.27,29.70,1006.10,126.31,47.14,62.24,248.79,0.12,-0.03,-0.10,-56.36,96.68,-56.36,1,1
21/11/2018 08:44:27,74.26,-5.839482,-35.201366,0.00,0.00,11.00,0.00,132.73,0.69,8.15,11.33,-9.40,-124.84,29.70,1006.16,126.56,31.94,62.24,235.40,-0.03,-0.05,0.01,-58.05,96.68,-58.05,1,1
21/11/2018 08:44:27,74.51,-5.839482,-35.201366,0.00,0.00,2.00,0.00,132.73,0.69,0.76,9.83,-7.13,-119.54,29.70,1006.19,126.31,39.03,54.21,256.00,0.01,0.14,0.56,-49.15,100.83,-49.15,1,1
21/11/2018 08:44:27,74.76,-5.839482,-35.201366,0.00,0.00,-45.00,0.00,132.73,0.69,-10.30,7.60,-9.61,-110.12,29.70,1006.19,126.56,56.27,47.18,248.79,0.06,0.10,0.51,-32.63,105.81,-32.63,1,1
21/11/2018 08:44:27,75.01,-5.839482,-35.201366,0.00,0.00,-66.00,0.00,132.73,0.69,-10.14,9.87,-10.70,-107.84,29.70,1006.22,125.81,39.03,61.24,252.91,0.05,0.04,-0.06,-26.69,107.88,-26.69,1,1
21/11/2018 08:44:28,75.26,-5.839485,-35.201366,0.00,0.00,-59.00,0.00,132.73,0.69,-7.09,10.73,-10.57,-107.57,29.70,1006.19,126.31,41.06,61.24,241.58,-0.05,-0.02,-0.33,-27.54,107.88,-27.54,1,1
21/11/2018 08:44:28,75.51,-5.839485,-35.201366,0.00,0.00,-21.00,0.00,273.26,0.76,0.66,10.28,-8.17,-118.14,29.70,1006.13,127.07,34.98,59.23,245.70,0.00,-0.06,-0.50,-44.49,102.07,-44.49,1,1
21/11/2018 08:44:28,75.76,-5.839485,-35.201366,0.00,0.00,18.00,0.00,273.26,0.76,3.04,9.00,-5.34,-122.59,29.70,1006.19,124.81,1.52,58.23,248.79,-0.07,-0.00,0.14,-55.08,98.34,-55.08,1,1
21/11/2018 08:44:29,76.01,-5.839483,-35.201362,0.00,0.00,-12.00,0.00,273.26,0.76,-8.89,5.08,-1.51,-110.51,29.70,1006.13,126.06,17.74,31.12,245.70,-0.08,0.13,0.87,-35.59,103.73,-35.59,1,1
21/11/2018 08:44:29,76.26,-5.839483,-35.201362,0.00,0.00,-75.00,0.00,273.26,0.76,-26.07,7.33,-0.40,-93.79,29.70,1006.19,125.81,23.83,21.08,267.33,0.18,0.28,1.17,-4.66,105.81,-4.66,1,1
21/11/2018 08:44:29,76.51,-5.839483,-35.201362,0.00,0.00,-90.00,0.00,273.26,0.76,-44.37,1.32,-8.28,-70.59,29.70,1006.10,125.81,46.13,6.02,253.94,0.02,0.01,0.96,35.59,97.10,35.59,1,1
21/11/2018 08:44:30,76.76,-5.839482,-35.201362,0.00,0.00,-90.00,0.00,273.26,0.76,-54.80,-0.86,-10.60,-58.64,29.70,1006.16,126.06,43.09,33.13,220.97,0.04,0.31,0.43,55.51,85.06,55.51,1,1
21/11/2018 08:44:30,77.01,-5.839482,-35.201362,0.00,0.00,-90.00,0.00,273.26,0.76,-62.49,0.34,-6.96,-51.37,29.70,1006.19,126.06,21.80,21.08,219.94,-0.13,0.18,0.37,63.56,73.86,63.56,1,1
21/11/2018 08:44:30,77.27,-5.839482,-35.201362,0.00,0.00,-90.00,0.00,273.26,0.76,-69.95,-1.40,-4.88,-43.56,29.70,1006.16,125.81,9.63,-21.08,287.94,-0.19,-0.11,0.50,69.92,65.15,69.92,1,1
21/11/2018 08:44:30,77.52,-5.839482,-35.201362,0.00,0.00,-90.00,0.00,273.26,0.76,-81.59,-9.10,-1.33,-31.15,29.70,1006.22,125.81,48.16,-32.13,276.60,0.10,0.00,0.50,82.63,47.72,82.63,1,1
21/11/2018 08:44:31,77.77,-5.839482,-35.201362,0.00,0.00,-90.00,0.00,273.26,0.76,-76.22,-5.91,-9.75,-37.30,29.70,1006.31,125.56,81.62,-36.14,257.03,0.24,0.51,-0.71,78.39,53.94,78.39,1,1
21/11/2018 08:44:31,78.01,-5.839482,-35.201362,0.00,0.00,-90.00,0.00,273.26,0.76,-60.67,-1.82,-5.94,-60.66,29.70,1006.25,125.06,-35.99,27.11,270.42,-0.02,-0.05,-0.83,53.39,81.74,53.39,1,1
21/11/2018 08:44:31,78.27,-5.839482,-35.201362,0.00,0.00,-90.00,0.00,273.26,0.76,-46.26,-3.00,0.62,-69.54,29.70,1006.25,125.31,-4.56,-4.02,244.67,-0.26,0.00,-0.90,31.78,92.12,31.78,1,1
21/11/2018 08:44:31,78.51,-5.839482,-35.201362,0.00,0.00,-90.00,0.00,273.26,0.76,-40.14,-5.61,2.56,-80.24,29.70,1006.31,124.31,3.55,2.01,281.75,-0.20,-0.30,-0.23,16.95,96.27,16.95,1,1
21/11/2018 08:44:31,78.77,-5.839482,-35.201362,0.00,0.00,-90.00,0.00,273.26,0.76,-38.24,-10.44,-1.40,-80.91,29.70,1006.31,124.81,8.62,-28.11,249.82,-0.21,-0.18,-0.04,15.25,92.53,15.25,1,1
21/11/2018 08:44:31,79.02,-5.839482,-35.201362,0.00,0.00,-90.00,0.00,273.26,0.76,-36.86,-5.47,-3.34,-82.04,29.70,1006.37,124.56,39.03,-22.09,253.94,0.46,0.00,-0.16,14.83,97.93,14.83,1,1
21/11/2018 08:44:33,79.26,-5.839480,-35.201362,0.00,0.00,-90.00,0.00,273.26,0.76,-30.11,-2.45,-4.40,-89.37,29.70,1006.31,124.56,11.66,10.04,244.67,0.03,0.00,-0.34,3.39,102.90,3.39,1,1
21/11/2018 08:44:33,79.52,-5.839480,-35.201362,0.00,0.00,-90.00,0.00,273.26,0.76,-25.82,-1.00,-0.20,-94.68,29.80,1006.28,124.56,2.53,12.05,270.42,-0.02,-0.19,-0.19,-9.75,103.73,-9.75,1,1
21/11/2018 08:44:33,79.77,-5.839480,-35.201362,0.00,0.00,-90.00,0.00,273.26,0.76,-23.17,-1.21,-1.05,-95.85,29.80,1006.40,124.56,11.66,11.04,251.88,-0.07,0.12,-0.10,-8.90,102.07,-8.90,1,1
21/11/2018 08:44:33,80.02,-5.839480,-35.201362,0.00,0.00,-90.00,0.00,273.26,0.76,-20.08,-1.02,-3.14,-98.40,29.80,1006.31,125.81,21.80,5.02,251.88,0.05,0.00,-0.22,-14.41,103.73,-14.41,1,1
21/11/2018 08:44:34,80.27,-5.839482,-35.201362,0.00,0.00,-90.00,0.00,273.26,0.76,-15.63,-1.88,-1.59,-102.99,29.80,1006.34,124.56,15.71,17.07,256.00,-0.05,-0.19,-0.21,-21.19,102.90,-21.19,1,1
