Date,TimeStamp,Latitude,Longitude,Wind Direction,Wind Speed,Rudder Angle,Thruster Power,GPS Course,GPS Speed,Yaw,Pitch,Roll,Magnetometer Heading,Temperature,Pressure,Altitude,Accel_x,Accel_y,Accel_z,Gyro_x,Gyro_y,Gyro_z,Mag_x,Mag_y,Mag_z,Going to waypoint,Autopilot on?
15/11/2018 12:41:09,0.09,-5.839575,-35.201278,22.50,0.00,0.00,11.00,233.40,0.50,156.71,0.19,-2.01,50.57,31.40,1004.13,143.05,-0.51,-30.12,256.00,-0.00,-0.01,-0.01,64.83,-78.84,64.83,0,1
15/11/2018 12:41:09,0.46,-5.839575,-35.201278,22.50,0.00,-90.00,11.00,233.40,0.50,-176.79,-7.38,-2.33,48.39,31.40,1004.16,143.30,0.51,-27.11,253.94,0.01,-0.01,-0.01,66.53,-77.18,66.53,0,1
15/11/2018 12:41:09,0.82,-5.839575,-35.201278,22.50,0.00,-90.00,11.00,233.40,0.50,-160.60,-6.18,-1.92,48.69,31.40,1004.16,143.30,1.52,-34.13,256.00,-0.00,0.00,-0.01,66.10,-77.59,66.10,0,1
15/11/2018 12:41:09,1.19,-5.839575,-35.201278,22.50,0.00,-90.00,11.00,233.40,0.50,-148.32,-5.54,-1.48,48.29,31.50,1004.10,143.55,3.55,-34.13,257.03,0.00,-0.01,-0.31,66.10,-76.76,66.10,0,1
00/00/2000 12:41:18,1.55,-5.839573,-35.201274,22.50,0.00,-90.00,11.00,1000.00,-1.00,-143.85,-6.28,-3.61,48.66,31.50,1004.07,144.05,-3.55,-27.11,260.12,0.00,-0.02,-0.01,66.53,-78.01,66.53,0,1
00/00/2000 12:41:18,1.91,-5.839573,-35.201274,0.00,0.00,-90.00,11.00,1000.00,-1.00,-141.76,-6.29,-3.23,49.18,31.50,1004.01,143.55,6.59,-32.13,257.03,0.02,0.04,-0.01,66.10,-77.59,66.10,0,1
00/00/2000 12:41:18,2.25,-5.839573,-35.201274,0.00,0.00,-90.00,0.00,1000.00,-1.00,-140.49,-5.22,-2.21,48.16,31.50,1004.07,142.80,6.59,-37.15,259.09,0.00,0.01,-0.01,66.95,-76.76,66.95,0,1
15/11/2018 12:41:19,2.61,-5.839573,-35.201274,0.00,0.00,-90.00,0.00,104.31,0.31,-139.40,-6.16,-1.90,48.20,31.50,1004.04,143.80,-6.59,-20.08,247.76,0.01,0.05,-0.00,66.53,-77.59,66.53,0,1
15/11/2018 12:41:20,2.98,-5.839573,-35.201274,22.50,0.00,-90.00,0.00,104.31,0.31,-138.77,-6.89,-2.76,48.49,31.50,1004.19,143.55,6.59,-26.10,251.88,0.00,0.01,-0.01,67.37,-78.42,67.37,0,1
15/11/2018 12:41:20,3.35,-5.839573,-35.201274,22.50,0.00,-90.00,11.00,104.31,0.31,-138.63,-6.62,-2.21,49.74,31.50,1004.10,143.05,0.51,-31.12,259.09,0.00,0.01,-0.00,66.10,-79.25,66.10,0,1
15/11/2018 12:41:20,3.70,-5.839573,-35.201274,22.50,0.00,-90.00,11.00,104.31,0.31,-138.86,-7.01,-2.30,49.66,31.50,1004.19,143.05,-1.52,-28.11,254.97,0.01,0.00,-0.01,64.83,-78.84,64.83,0,1
15/11/2018 12:41:21,4.07,-5.839573,-35.201274,22.50,0.00,-90.00,11.00,104.31,0.31,-138.90,-5.45,-2.27,47.75,31.50,1004.10,143.55,-2.53,-28.11,260.12,0.00,0.02,-0.01,67.37,-76.76,67.37,0,1
15/11/2018 12:41:21,4.44,-5.839573,-35.201274,22.50,0.00,-90.00,11.00,104.31,0.31,-138.45,-7.31,-2.30,48.02,31.50,1004.10,143.55,0.51,-30.12,256.00,-0.00,0.01,-0.01,67.37,-78.01,67.37,0,1
15/11/2018 12:41:21,4.80,-5.839573,-35.201274,22.50,0.00,-90.00,11.00,43.69,0.59,-138.34,-6.07,-1.27,49.12,31.50,1004.01,143.80,3.55,-31.12,252.91,0.01,0.01,-0.01,64.83,-77.59,64.83,0,1
15/11/2018 12:41:22,5.16,-5.839572,-35.201271,22.50,0.00,-90.00,11.00,88.92,0.50,-138.58,-7.28,-3.94,48.65,31.50,1004.07,144.05,4.56,-28.11,242.61,-0.03,-0.15,-0.01,66.95,-78.01,66.95,0,1
15/11/2018 12:41:22,5.52,-5.839572,-35.201271,22.50,0.00,-90.00,11.00,88.92,0.50,-138.68,-5.64,-1.84,49.51,31.50,1004.10,144.05,9.63,-26.10,252.91,0.01,0.01,-0.01,65.68,-78.84,65.68,0,1
15/11/2018 12:41:23,5.89,-5.839573,-35.201271,0.00,0.00,-90.00,11.00,88.92,0.50,-139.03,-6.65,-3.70,49.09,31.50,1004.16,143.30,4.56,-31.12,258.06,0.00,-0.05,-0.01,66.53,-77.59,66.53,0,1
15/11/2018 12:41:23,6.26,-5.839573,-35.201271,0.00,0.00,-90.00,0.00,88.92,0.50,-139.00,-6.17,-4.14,48.35,31.50,1004.16,142.29,1.52,-28.11,254.97,-0.00,-0.01,-0.01,67.37,-78.01,67.37,0,1
15/11/2018 12:41:23,6.61,-5.839573,-35.201271,0.00,0.00,-90.00,0.00,88.92,0.50,-138.69,-5.21,-0.96,49.40,31.50,1004.10,144.05,8.62,-28.11,254.97,0.00,0.00,-0.01,65.68,-79.25,65.68,0,1
15/11/2018 12:41:24,6.98,-5.839572,-35.201271,0.00,0.00,-90.00,0.00,74.58,0.46,-138.92,-5.36,-3.08,48.84,31.50,1004.10,143.80,8.62,-30.12,256.00,-0.00,-0.03,-0.01,66.95,-77.59,66.95,0,1
15/11/2018 12:41:25,7.35,-5.839572,-35.201267,0.00,0.00,-90.00,0.00,74.58,0.46,-138.77,-6.55,-3.07,49.19,31.50,1004.01,143.55,-0.51,-30.12,264.24,-0.01,-0.00,-0.01,66.53,-78.42,66.53,0,1
15/11/2018 12:41:25,7.72,-5.839572,-35.201267,0.00,0.00,-90.00,0.00,74.58,0.46,-138.75,-6.74,-2.48,47.56,31.50,1004.07,142.80,13.69,-26.10,244.67,0.01,0.02,-0.01,67.37,-77.18,67.37,0,1
15/11/2018 12:41:25,8.07,-5.839572,-35.201267,0.00,0.00,-90.00,0.00,74.58,0.46,-138.14,-5.58,-6.54,49.48,31.50,1004.01,143.55,-1.52,-27.11,251.88,-0.00,0.05,-0.01,66.53,-79.67,66.53,0,1
15/11/2018 12:41:26,8.44,-5.839573,-35.201267,0.00,0.00,-90.00,0.00,74.58,0.46,-138.61,-6.62,-2.35,48.53,31.50,1004.01,143.30,4.56,-29.11,254.97,-0.00,-0.00,-0.01,66.95,-78.84,66.95,0,1
15/11/2018 12:41:26,8.80,-5.839573,-35.201267,0.00,0.00,-90.00,0.00,101.57,0.37,-138.66,-6.28,-2.53,48.24,31.50,1004.10,142.80,3.55,-30.12,256.00,0.00,-0.00,-0.01,67.37,-77.18,67.37,0,1
15/11/2018 12:41:26,9.16,-5.839573,-35.201267,0.00,0.00,-90.00,0.00,101.57,0.37,-138.51,-6.51,-2.77,48.44,31.50,1004.19,143.05,2.53,-29.11,257.03,0.00,0.00,-0.01,66.95,-77.59,66.95,0,1
15/11/2018 12:41:27,9.50,-5.839573,-35.201267,0.00,0.00,-90.00,0.00,120.83,0.24,-138.47,-6.43,-2.73,48.31,31.50,1004.10,142.80,3.55,-30.12,257.03,0.00,0.00,-0.01,66.95,-77.18,66.95,0,1
15/11/2018 12:41:28,9.87,-5.839573,-35.201267,0.00,0.00,-90.00,0.00,120.83,0.24,-138.22,-6.41,-2.82,48.10,31.60,1004.19,143.30,3.55,-31.12,257.03,0.01,-0.00,-0.02,67.37,-77.18,67.37,0,1
15/11/2018 12:41:28,10.24,-5.839573,-35.201267,0.00,0.00,-90.00,0.00,120.83,0.24,-138.23,-6.68,-2.80,47.88,31.60,1004.10,143.05,3.55,-29.11,256.00,0.01,0.00,-0.01,67.37,-76.76,67.37,0,1
15/11/2018 12:41:28,10.59,-5.839573,-35.201267,0.00,0.00,-90.00,4.00,120.83,0.24,-138.13,-6.42,-2.79,49.02,31.60,1004.13,143.30,3.55,-31.12,256.00,0.00,0.00,-0.01,65.68,-77.59,65.68,0,0
15/11/2018 12:41:29,10.94,-5.839573,-35.201267,0.00,0.00,0.00,3.00,120.83,0.24,-138.38,-6.49,-2.81,48.91,31.60,1004.10,143.30,3.55,-30.12,257.03,0.00,0.00,-0.02,66.53,-78.42,66.53,0,0
15/11/2018 12:41:29,11.31,-5.839573,-35.201267,0.00,0.00,0.00,4.00,139.59,0.26,-138.50,-6.49,-3.00,48.31,31.60,1004.22,142.80,3.55,-31.12,257.03,0.00,0.00,-0.01,67.37,-77.59,67.37,0,0
15/11/2018 12:41:30,11.65,-5.839573,-35.201267,0.00,0.00,0.00,3.00,139.59,0.26,-138.40,-6.20,-3.37,47.37,31.60,1004.13,143.30,4.56,-30.12,258.06,0.00,-0.00,-0.01,67.80,-75.93,67.80,0,0
15/11/2018 12:41:30,11.99,-5.839573,-35.201267,0.00,0.00,0.00,4.00,139.59,0.26,-138.32,-6.52,-2.83,48.26,31.70,1004.16,143.30,3.55,-30.12,258.06,-0.00,-0.00,-0.01,67.80,-78.01,67.80,0,0
15/11/2018 12:41:30,12.34,-5.839573,-35.201267,0.00,0.00,0.00,3.00,139.59,0.26,-138.25,-6.67,-3.82,48.38,31.70,1004.16,142.80,6.59,-30.12,257.03,0.00,0.02,-0.01,66.53,-77.59,66.53,0,0
15/11/2018 12:41:31,12.70,-5.839572,-35.201267,0.00,0.00,0.00,4.00,139.59,0.26,-138.44,-6.38,-3.56,48.81,31.70,1004.13,143.05,2.53,-32.13,256.00,0.00,0.01,-0.01,66.10,-77.18,66.10,0,0
15/11/2018 12:41:31,13.05,-5.839572,-35.201267,0.00,0.00,0.00,3.00,139.59,0.26,-138.56,-6.96,-2.09,47.85,31.70,1004.25,142.80,-0.51,-34.13,267.33,0.01,0.03,-0.01,67.80,-77.18,67.80,0,0
15/11/2018 12:41:32,13.42,-5.839572,-35.201267,0.00,0.00,0.00,3.00,5.72,0.22,-138.23,-6.33,-2.64,48.43,31.70,1004.16,143.05,2.53,-30.12,256.00,0.01,0.00,-0.01,67.80,-79.25,67.80,0,0
15/11/2018 12:41:32,13.77,-5.839572,-35.201267,0.00,0.00,0.00,4.00,5.72,0.22,-138.45,-6.51,-3.16,49.01,31.70,1004.19,143.30,5.58,-30.12,256.00,-0.01,-0.05,-0.01,66.95,-79.25,66.95,0,0
15/11/2018 12:41:32,14.11,-5.839572,-35.201267,0.00,0.00,0.00,4.00,5.72,0.22,-138.57,-6.31,-2.29,48.97,31.70,1004.07,143.05,6.59,-29.11,257.03,-0.02,0.00,-0.01,66.95,-78.84,66.95,0,0
15/11/2018 12:41:33,14.45,-5.839572,-35.201267,0.00,0.00,0.00,3.00,5.72,0.22,-138.40,-6.25,-2.21,48.37,31.70,1004.13,143.55,0.51,-39.15,273.51,0.02,0.05,-0.01,67.37,-77.59,67.37,0,0
15/11/2018 12:41:33,14.80,-5.839572,-35.201267,0.00,0.00,0.00,4.00,5.72,0.22,-138.21,-5.21,-3.05,47.26,31.70,1004.10,142.80,4.56,-29.11,258.06,0.02,-0.04,-0.01,67.80,-77.59,67.80,0,0
15/11/2018 12:41:34,15.17,-5.839570,-35.201267,0.00,0.00,0.00,3.00,5.72,0.22,-138.08,-6.25,-3.19,48.48,31.70,1004.13,143.30,3.55,-31.12,253.94,0.01,0.00,-0.01,66.53,-77.18,66.53,0,0
15/11/2018 12:41:34,15.51,-5.839570,-35.201267,0.00,0.00,0.00,4.00,164.51,0.13,-138.19,-6.61,-3.05,47.88,31.70,1004.10,142.29,5.58,-31.12,256.00,-0.00,-0.01,-0.01,68.22,-77.59,68.22,0,0
15/11/2018 12:41:34,15.86,-5.839570,-35.201267,0.00,0.00,0.00,4.00,164.51,0.13,-138.12,-6.76,-2.15,47.66,31.70,1004.22,143.30,4.56,-31.12,256.00,-0.00,0.00,-0.01,67.37,-76.35,67.37,0,0
15/11/2018 12:41:35,16.20,-5.839572,-35.201267,0.00,0.00,0.00,3.00,164.51,0.13,-138.07,-6.90,-3.36,48.26,31.70,1004.10,143.05,4.56,-31.12,256.00,-0.01,-0.01,-0.00,67.80,-78.01,67.80,0,0
15/11/2018 12:41:35,16.56,-5.839572,-35.201267,0.00,0.00,0.00,4.00,164.51,0.13,-138.76,-9.35,-3.38,49.37,31.80,1004.13,142.80,2.53,-35.14,252.91,-0.29,-0.01,0.04,66.95,-79.25,66.95,0,0
15/11/2018 12:41:35,16.90,-5.839572,-35.201267,0.00,0.00,0.00,4.00,164.51,0.13,-138.41,-5.79,-6.28,48.93,31.80,1004.19,143.55,6.59,-36.14,268.36,0.02,0.00,-0.01,66.53,-77.59,66.53,0,0
15/11/2018 12:41:35,17.25,-5.839572,-35.201267,0.00,0.00,0.00,3.00,164.51,0.13,-138.80,-6.62,-2.81,48.23,31.80,1004.19,142.29,4.56,-29.11,253.94,-0.00,-0.02,-0.00,67.37,-78.01,67.37,0,0
15/11/2018 12:41:35,17.59,-5.839572,-35.201267,0.00,0.00,0.00,3.00,164.51,0.13,-138.67,-6.51,-3.23,47.80,31.80,1004.16,143.05,4.56,-30.12,257.03,0.00,0.00,-0.01,68.22,-77.18,68.22,0,0
15/11/2018 12:41:37,17.96,-5.839577,-35.201267,0.00,0.00,0.00,3.00,164.51,0.13,-138.59,-6.52,-3.03,48.47,31.80,1004.19,142.29,3.55,-30.12,257.03,0.00,-0.00,-0.01,66.53,-77.18,66.53,0,0
15/11/2018 12:41:37,18.31,-5.839577,-35.201267,0.00,0.00,0.00,4.00,164.51,0.13,-138.51,-6.86,-2.96,47.59,31.80,1004.04,143.30,11.66,-29.11,251.88,0.00,-0.02,-0.01,68.64,-77.18,68.64,0,0
15/11/2018 12:41:37,18.66,-5.839577,-35.201267,0.00,0.00,0.00,3.00,164.51,0.13,-138.29,-6.45,-3.75,49.29,31.80,1004.10,143.80,4.56,-29.11,253.94,0.00,-0.01,-0.01,66.10,-77.59,66.10,0,0
15/11/2018 12:41:38,19.00,-5.839577,-35.201271,0.00,0.00,0.00,4.00,74.37,0.26,-138.67,-6.81,-3.22,48.82,31.80,1004.16,143.05,3.55,-29.11,256.00,0.01,-0.00,-0.01,66.53,-78.01,66.53,0,0
15/11/2018 12:41:39,19.34,-5.839575,-35.201271,0.00,0.00,0.00,4.00,74.37,0.26,-138.80,-6.50,-3.55,49.04,31.80,1004.28,142.80,4.56,-29.11,254.97,-0.00,-0.00,-0.01,66.95,-79.25,66.95,0,0
15/11/2018 12:41:39,19.69,-5.839575,-35.201271,0.00,0.00,0.00,3.00,74.37,0.26,-138.63,-6.42,-2.98,48.47,31.80,1004.07,143.30,1.52,-28.11,259.09,0.00,0.00,-0.01,66.53,-77.18,66.53,0,0
15/11/2018 12:41:39,20.04,-5.839575,-35.201271,0.00,0.00,0.00,4.00,74.37,0.26,-138.65,-6.65,-3.19,48.91,31.80,1004.13,142.04,5.58,-30.12,253.94,0.00,-0.05,-0.01,66.53,-78.42,66.53,0,0
15/11/2018 12:41:39,20.37,-5.839575,-35.201271,0.00,0.00,0.00,4.00,74.37,0.26,-138.66,-6.44,-2.95,48.94,31.80,1004.22,142.29,4.56,-29.11,254.97,0.01,0.02,-0.01,65.68,-77.18,65.68,0,0
15/11/2018 12:41:40,20.72,-5.839572,-35.201271,0.00,0.00,0.00,4.00,16.34,1.02,-138.72,-6.11,-1.65,49.16,31.80,1004.16,142.55,1.52,-27.11,248.79,0.02,0.10,-0.01,66.10,-78.42,66.10,0,0
15/11/2018 12:41:41,21.07,-5.839570,-35.201271,0.00,0.00,0.00,3.00,16.34,1.02,-138.89,-5.63,-3.08,49.67,31.80,1004.13,142.80,4.56,-29.11,253.94,0.00,0.00,-0.01,66.10,-78.42,66.10,0,0
15/11/2018 12:41:41,21.41,-5.839570,-35.201271,0.00,0.00,0.00,3.00,16.34,1.02,-139.17,-6.53,-3.02,49.21,31.80,1004.16,143.05,4.56,-29.11,254.97,-0.00,0.00,-0.01,65.25,-77.59,65.25,0,0
15/11/2018 12:41:41,21.75,-5.839570,-35.201271,0.00,0.00,0.00,4.00,16.34,1.02,-139.25,-6.42,-3.20,48.33,31.80,1004.19,143.05,4.56,-30.12,256.00,0.01,0.00,-0.01,67.37,-77.59,67.37,0,0
15/11/2018 12:41:41,22.10,-5.839570,-35.201271,0.00,0.00,0.00,3.00,16.34,1.02,-138.94,-6.66,-2.51,48.44,31.80,1004.16,142.80,1.52,-29.11,254.97,0.00,0.01,-0.01,66.95,-77.59,66.95,0,0
15/11/2018 12:41:42,22.44,-5.839570,-35.201271,0.00,0.00,0.00,4.00,173.32,1.09,-138.67,-6.16,-1.72,48.63,31.80,1004.10,143.30,7.60,-35.14,268.36,0.01,0.13,-0.01,66.53,-78.01,66.53,0,0
15/11/2018 12:41:43,22.78,-5.839573,-35.201271,0.00,0.00,0.00,4.00,173.32,1.09,-138.54,-6.13,-4.72,50.01,31.80,1004.07,143.80,-1.52,-30.12,254.97,0.00,0.03,-0.01,64.83,-78.84,64.83,0,0
15/11/2018 12:41:43,23.12,-5.839573,-35.201271,0.00,0.00,0.00,4.00,173.32,1.09,-139.13,-6.78,-2.78,48.10,31.80,1004.10,142.80,0.51,-28.11,256.00,0.00,-0.06,-0.01,67.37,-77.59,67.37,0,0
15/11/2018 12:41:43,23.47,-5.839573,-35.201271,0.00,0.00,0.00,4.00,173.32,1.09,-138.76,-6.45,-2.08,48.77,31.80,1004.10,142.55,3.55,-31.12,256.00,-0.00,-0.00,-0.01,66.95,-78.84,66.95,0,0
15/11/2018 12:41:43,23.82,-5.839573,-35.201271,0.00,0.00,0.00,4.00,173.32,1.09,-138.55,-6.46,-3.01,48.42,31.80,1004.10,143.30,5.58,-31.12,259.09,0.01,0.02,-0.02,66.95,-78.01,66.95,0,0
15/11/2018 12:41:44,24.15,-5.839575,-35.201271,0.00,0.00,0.00,4.00,142.51,0.39,-138.70,-6.88,-2.91,49.27,31.80,1004.13,143.05,3.55,-31.12,257.03,-0.00,0.00,-0.01,66.53,-79.25,66.53,0,0
15/11/2018 12:41:45,24.50,-5.839577,-35.201274,0.00,0.00,0.00,4.00,142.51,0.39,-138.65,-6.45,-2.93,49.05,31.80,1004.19,143.30,2.53,-30.12,258.06,0.01,0.01,-0.01,66.10,-78.42,66.10,0,0
15/11/2018 12:41:45,24.84,-5.839577,-35.201274,0.00,0.00,0.00,4.00,142.51,0.39,-138.69,-6.72,-2.58,49.40,31.80,1004.22,142.29,5.58,-31.12,254.97,0.00,-0.00,-0.01,65.25,-78.42,65.25,0,0
15/11/2018 12:41:45,25.18,-5.839577,-35.201274,0.00,0.00,0.00,4.00,142.51,0.39,-138.85,-6.71,-3.06,48.65,31.80,1004.16,142.55,3.55,-31.12,256.00,0.00,0.00,-0.00,66.53,-77.59,66.53,0,0
15/11/2018 12:41:45,25.53,-5.839577,-35.201274,0.00,0.00,0.00,4.00,142.51,0.39,-138.60,-6.67,-2.27,48.40,31.80,1004.04,142.80,3.55,-30.12,253.94,0.01,0.04,-0.01,66.95,-77.59,66.95,0,0
15/11/2018 12:41:45,25.88,-5.839577,-35.201274,0.00,0.00,0.00,2.00,142.51,0.39,-138.69,-6.60,-2.47,48.99,31.80,1004.13,142.29,4.56,-28.11,256.00,0.00,-0.00,-0.01,65.68,-77.59,65.68,0,0
15/11/2018 12:41:47,26.21,-5.839580,-35.201278,0.00,0.00,0.00,3.00,72.09,0.15,-138.84,-6.26,-3.01,49.40,31.80,1004.19,143.55,14.70,-31.12,252.91,-0.00,-0.06,-0.01,66.10,-78.42,66.10,0,0
15/11/2018 12:41:47,26.56,-5.839580,-35.201278,0.00,0.00,0.00,4.00,72.09,0.15,-138.88,-6.74,-3.10,49.34,31.80,1004.19,143.55,3.55,-30.12,257.03,0.00,0.01,-0.01,65.68,-77.18,65.68,0,0
15/11/2018 12:41:47,26.89,-5.839580,-35.201278,0.00,0.00,0.00,4.00,72.09,0.15,-138.94,-6.50,-3.16,49.10,31.80,1004.22,142.80,3.55,-31.12,256.00,0.00,0.00,-0.01,66.53,-78.84,66.53,0,0
15/11/2018 12:41:47,27.24,-5.839580,-35.201278,0.00,0.00,0.00,4.00,72.09,0.15,-138.98,-6.59,-3.25,48.42,31.80,1004.16,143.05,3.55,-30.12,254.97,-0.00,-0.03,-0.01,66.53,-77.18,66.53,0,0
15/11/2018 12:41:48,27.59,-5.839578,-35.201278,0.00,0.00,0.00,3.00,36.64,0.52,-138.75,-6.67,-2.76,48.38,31.80,1004.16,142.55,4.56,-31.12,257.03,0.01,-0.02,-0.01,66.95,-77.59,66.95,0,0
15/11/2018 12:41:49,27.93,-5.839578,-35.201282,0.00,0.00,0.00,3.00,36.64,0.52,-138.50,-6.71,-2.84,49.23,31.80,1004.19,143.05,3.55,-31.12,257.03,0.00,-0.00,-0.01,65.68,-78.42,65.68,0,0
15/11/2018 12:41:49,28.28,-5.839578,-35.201282,0.00,0.00,0.00,4.00,36.64,0.52,-138.61,-6.54,-2.76,49.18,31.80,1004.10,143.30,2.53,-30.12,256.00,-0.00,0.00,-0.01,66.10,-78.84,66.10,0,0
15/11/2018 12:41:49,28.62,-5.839578,-35.201282,0.00,0.00,0.00,4.00,36.64,0.52,-138.53,-6.65,-2.76,49.39,31.80,1004.10,143.30,4.56,-31.12,254.97,0.00,0.00,-0.01,65.68,-78.84,65.68,0,0
15/11/2018 12:41:49,28.96,-5.839578,-35.201282,0.00,0.00,0.00,3.00,36.64,0.52,-138.69,-6.51,-2.87,48.96,31.80,1004.04,143.80,4.56,-30.12,256.00,0.00,-0.00,-0.01,65.68,-77.59,65.68,0,0
15/11/2018 12:41:50,29.31,-5.839578,-35.201282,0.00,0.00,0.00,4.00,189.94,0.19,-138.79,-6.72,-3.05,48.78,31.80,1004.16,142.80,3.55,-31.12,256.00,-0.00,-0.00,-0.01,66.95,-78.42,66.95,0,0
15/11/2018 12:41:51,29.67,-5.839580,-35.201286,0.00,0.00,0.00,3.00,189.94,0.19,-138.74,-6.52,-3.04,49.12,31.80,1004.10,143.80,3.55,-30.12,253.94,0.00,-0.01,-0.01,66.53,-79.25,66.53,0,0
15/11/2018 12:41:51,30.03,-5.839580,-35.201286,0.00,0.00,0.00,3.00,189.94,0.19,-138.64,-6.69,-2.78,48.72,31.90,1004.04,143.80,4.56,-31.12,256.00,0.00,0.00,-0.01,66.53,-78.01,66.53,0,0
15/11/2018 12:41:51,30.38,-5.839580,-35.201286,0.00,0.00,0.00,3.00,189.94,0.19,-138.45,-6.75,-3.21,47.96,31.90,1004.10,143.80,6.59,-31.12,252.91,0.00,-0.02,-0.01,67.37,-76.76,67.37,0,0
15/11/2018 12:41:52,30.74,-5.839580,-35.201286,0.00,0.00,0.00,3.00,358.52,0.15,-138.30,-6.52,-3.21,49.01,31.90,1004.16,142.80,3.55,-30.12,257.03,0.00,-0.01,-0.01,66.53,-78.42,66.53,0,0
15/11/2018 12:41:52,31.09,-5.839580,-35.201286,0.00,0.00,0.00,4.00,358.52,0.15,-138.61,-6.49,-2.86,48.79,31.90,1004.13,143.55,4.56,-30.12,252.91,0.02,-0.03,-0.01,65.68,-77.18,65.68,0,0
15/11/2018 12:41:53,31.44,-5.839580,-35.201286,0.00,0.00,0.00,3.00,358.52,0.15,-139.21,-7.78,-8.65,48.61,31.90,1004.13,143.30,-0.51,-30.12,258.06,0.00,-0.04,-0.01,66.53,-76.76,66.53,0,0
15/11/2018 12:41:53,31.78,-5.839580,-35.201286,0.00,0.00,0.00,4.00,358.52,0.15,-139.04,-6.56,-2.42,48.04,31.90,1004.13,142.80,0.51,-28.11,254.97,0.01,0.00,-0.02,66.95,-77.59,66.95,0,0
15/11/2018 12:41:53,32.13,-5.839580,-35.201286,0.00,0.00,0.00,4.00,358.52,0.15,-138.70,-5.88,-1.33,48.56,31.90,1004.07,143.30,5.58,-33.13,259.09,0.00,-0.01,-0.01,66.53,-77.18,66.53,0,0
15/11/2018 12:41:54,32.47,-5.839578,-35.201286,0.00,0.00,0.00,3.00,358.52,0.15,-138.48,-6.96,-2.68,48.24,31.90,1004.16,143.30,2.53,-31.12,257.03,0.00,0.04,-0.01,67.37,-77.59,67.37,0,0
15/11/2018 12:41:54,32.81,-5.839578,-35.201286,0.00,0.00,0.00,4.00,358.52,0.15,-138.52,-6.63,-3.49,48.18,32.00,1004.16,143.05,2.53,-30.12,256.00,0.00,0.00,-0.01,67.80,-78.01,67.80,0,0
15/11/2018 12:41:55,33.16,-5.839578,-35.201286,0.00,0.00,0.00,4.00,358.52,0.15,-138.55,-6.67,-3.18,48.54,32.00,1004.23,142.21,5.58,-30.12,256.00,0.00,-0.00,-0.02,66.95,-78.01,66.95,0,0
15/11/2018 12:41:55,33.52,-5.839578,-35.201286,0.00,0.00,0.00,4.00,358.52,0.15,-138.55,-6.46,-2.88,48.62,32.00,1004.16,142.80,2.53,-29.11,254.97,0.00,-0.00,-0.01,67.37,-78.42,67.37,0,0
15/11/2018 12:41:55,33.88,-5.839578,-35.201286,0.00,0.00,0.00,3.00,358.52,0.15,-138.50,-6.43,-2.89,47.89,32.00,1004.19,142.80,4.56,-31.12,256.00,0.00,0.00,-0.01,67.37,-76.76,67.37,0,0
15/11/2018 12:41:56,34.23,-5.839578,-35.201290,0.00,0.00,0.00,4.00,358.52,0.15,-138.31,-6.56,-3.43,49.06,32.00,1004.13,143.05,3.55,-31.12,256.00,0.00,-0.00,-0.01,66.53,-78.84,66.53,0,0
15/11/2018 12:41:56,34.60,-5.839578,-35.201290,0.00,0.00,0.00,3.00,339.14,0.09,-138.63,-6.57,-2.58,48.84,32.00,1004.16,143.05,4.56,-31.12,256.00,0.00,0.00,-0.01,66.53,-78.42,66.53,0,0
15/11/2018 12:41:56,34.96,-5.839578,-35.201290,0.00,0.00,0.00,4.00,339.14,0.09,-138.42,-6.74,-3.04,48.77,32.00,1004.13,142.46,3.55,-32.13,257.03,0.00,0.00,-0.01,66.95,-78.42,66.95,0,0
15/11/2018 12:41:57,35.30,-5.839578,-35.201290,0.00,0.00,0.00,4.00,330.29,0.20,-138.39,-7.79,-1.19,48.56,32.00,1004.16,142.80,14.70,-28.11,247.76,-0.08,0.31,0.01,66.53,-76.35,66.53,0,0
15/11/2018 12:41:58,35.64,-5.839578,-35.201297,0.00,0.00,0.00,4.00,330.29,0.20,-138.24,-6.92,-3.37,49.09,32.00,1004.10,143.05,1.52,-33.13,261.15,0.01,0.00,-0.01,67.37,-78.01,67.37,0,0
15/11/2018 12:41:58,35.98,-5.839578,-35.201297,0.00,0.00,2.00,4.00,330.29,0.20,-138.47,-6.85,-2.89,48.18,32.00,1004.07,143.30,1.52,-30.12,260.12,0.00,-0.02,-0.02,66.95,-77.59,66.95,0,0
15/11/2018 12:41:58,36.35,-5.839578,-35.201297,0.00,0.00,2.00,4.00,330.29,0.20,-138.56,-6.88,-1.74,48.66,32.00,1004.13,143.30,-1.52,-32.13,262.18,0.01,-0.06,-0.02,66.95,-77.18,66.95,0,0
15/11/2018 12:41:58,36.69,-5.839578,-35.201297,0.00,0.00,4.00,4.00,330.29,0.20,-138.31,-6.78,-2.10,47.66,32.00,1004.10,142.46,5.58,-30.12,259.09,-0.04,0.17,0.00,67.37,-76.76,67.37,0,0
15/11/2018 12:41:59,37.06,-5.839580,-35.201297,0.00,0.00,2.00,4.00,232.37,0.56,-138.28,-6.26,-4.35,48.37,32.00,1004.13,143.30,10.65,-29.11,250.85,0.04,-0.15,-0.02,67.37,-77.59,67.37,0,0
15/11/2018 12:42:00,37.43,-5.839583,-35.201301,0.00,0.00,2.00,4.00,232.37,0.56,-138.45,-6.22,-5.41,49.01,32.00,1004.16,143.05,1.52,-30.12,254.97,0.01,0.00,-0.01,66.95,-77.18,66.95,0,0
15/11/2018 12:42:00,37.77,-5.839583,-35.201301,0.00,0.00,2.00,4.00,232.37,0.56,-138.75,-6.49,-2.72,48.13,32.00,1004.13,143.55,4.56,-31.12,256.00,0.00,-0.00,-0.01,66.53,-77.18,66.53,0,0
15/11/2018 12:42:00,38.11,-5.839583,-35.201301,0.00,0.00,9.00,4.00,232.37,0.56,-138.60,-6.57,-3.09,48.95,32.00,1004.13,143.05,3.55,-30.12,253.94,-0.00,-0.01,-0.01,66.10,-78.01,66.10,0,0
15/11/2018 12:42:01,38.46,-5.839585,-35.201305,0.00,0.00,9.00,4.00,232.37,0.56,-138.64,-6.74,-3.20,48.52,32.00,1004.07,143.80,5.58,-30.12,254.97,-0.00,-0.00,-0.01,67.37,-78.42,67.37,0,0
15/11/2018 12:42:01,38.82,-5.839585,-35.201305,0.00,0.00,9.00,3.00,232.37,0.56,-138.44,-6.69,-2.88,49.22,32.00,1004.10,143.30,3.55,-31.12,254.97,0.00,0.00,-0.01,66.10,-78.42,66.10,0,0
15/11/2018 12:42:01,39.16,-5.839585,-35.201305,0.00,0.00,6.00,4.00,184.63,1.30,-138.56,-6.36,-2.79,48.34,32.00,1004.13,142.46,4.56,-31.12,254.97,0.00,0.00,-0.01,66.10,-76.76,66.10,0,0
15/11/2018 12:42:01,39.51,-5.839585,-35.201305,0.00,0.00,9.00,4.00,184.63,1.30,-138.55,-6.55,-3.23,48.04,32.00,1004.16,143.30,4.56,-29.11,254.97,0.00,-0.00,-0.01,67.37,-77.18,67.37,0,0
15/11/2018 12:42:01,39.85,-5.839585,-35.201305,0.00,0.00,6.00,4.00,184.63,1.30,-138.43,-6.48,-2.84,49.12,32.00,1004.13,143.80,30.92,-38.15,280.72,0.00,0.02,-0.01,66.53,-78.84,66.53,0,0
15/11/2018 12:42:03,40.22,-5.839593,-35.201305,0.00,0.00,4.00,1.00,228.05,0.57,-138.47,-6.95,-2.70,50.23,32.00,1004.07,143.05,9.63,-31.12,257.03,0.03,0.10,-0.00,66.53,-78.42,66.53,0,0
15/11/2018 12:42:03,40.57,-5.839593,-35.201305,0.00,0.00,4.00,0.00,228.05,0.57,-138.86,-6.44,-2.89,48.87,32.00,1004.10,143.05,1.52,-32.13,259.09,-0.00,-0.02,-0.01,66.95,-77.59,66.95,0,0
15/11/2018 12:42:04,40.92,-5.839592,-35.201305,0.00,0.00,4.00,0.00,228.05,0.57,-138.76,-6.70,-2.13,47.38,32.00,1004.13,143.55,2.53,-31.12,254.97,0.00,-0.00,-0.01,67.80,-76.35,67.80,0,0
15/11/2018 12:42:04,41.27,-5.839592,-35.201305,0.00,0.00,6.00,1.00,228.05,0.57,-138.43,-6.55,-2.95,48.33,32.00,1004.16,143.30,5.58,-30.12,254.97,0.00,0.00,-0.00,66.53,-77.18,66.53,0,0
15/11/2018 12:42:04,41.61,-5.839592,-35.201305,0.00,0.00,4.00,1.00,228.05,0.57,-138.55,-6.35,-3.07,48.11,31.90,1004.04,143.30,4.56,-30.12,254.97,0.00,0.00,-0.01,68.22,-78.01,68.22,0,0
15/11/2018 12:42:05,41.95,-5.839590,-35.201305,0.00,0.00,4.00,0.00,228.05,0.57,-138.53,-6.74,-3.03,48.30,31.90,1004.23,143.80,3.55,-31.12,254.97,0.00,-0.00,-0.02,66.95,-77.18,66.95,0,0
15/11/2018 12:42:05,42.30,-5.839590,-35.201305,0.00,0.00,2.00,0.00,228.05,0.57,-138.43,-6.70,-3.18,48.55,32.00,1004.16,143.30,5.58,-30.12,253.94,0.00,-0.00,-0.01,66.53,-77.59,66.53,0,0
15/11/2018 12:42:06,42.64,-5.839590,-35.201309,0.00,0.00,2.00,0.00,228.05,0.57,-138.41,-6.62,-2.87,48.64,32.00,1004.01,143.30,3.55,-31.12,256.00,0.01,0.00,-0.01,66.95,-78.01,66.95,0,0
15/11/2018 12:42:06,42.99,-5.839590,-35.201309,0.00,0.00,2.00,0.00,228.05,0.57,-138.42,-6.74,-2.97,48.53,32.00,1004.20,143.55,4.56,-31.12,254.97,0.00,0.00,-0.01,66.95,-78.01,66.95,0,0
15/11/2018 12:42:06,43.34,-5.839590,-35.201309,0.00,0.00,2.00,0.00,228.05,0.57,-138.38,-6.70,-3.01,48.55,32.00,1004.10,143.30,4.56,-30.12,257.03,0.00,0.00,-0.01,66.95,-78.01,66.95,0,0
15/11/2018 12:42:07,43.69,-5.839592,-35.201305,0.00,0.00,4.00,0.00,228.05,0.57,-138.41,-6.50,-2.79,49.34,32.00,1004.13,143.55,4.56,-31.12,254.97,0.00,0.00,-0.01,65.68,-78.42,65.68,0,0
15/11/2018 12:42:07,44.04,-5.839592,-35.201305,0.00,0.00,2.00,0.00,228.05,0.57,-138.50,-6.56,-2.83,49.08,32.00,1004.04,143.55,4.56,-31.12,257.03,0.00,-0.00,-0.01,66.10,-78.42,66.10,0,0
15/11/2018 12:42:08,44.38,-5.839592,-35.201305,0.00,0.00,2.00,0.00,228.05,0.57,-138.52,-6.36,-2.84,48.32,32.00,1004.10,143.30,4.56,-30.12,256.00,0.00,0.00,-0.01,68.22,-78.84,68.22,0,0
15/11/2018 12:42:08,44.72,-5.839592,-35.201305,0.00,0.00,2.00,0.00,323.07,0.28,-138.41,-6.49,-2.82,49.43,32.00,1004.07,143.05,3.55,-30.12,253.94,0.00,0.00,-0.01,66.10,-79.25,66.10,0,0
15/11/2018 12:42:08,45.07,-5.839592,-35.201305,0.00,0.00,2.00,0.00,323.07,0.28,-138.50,-6.48,-2.77,48.86,32.00,1004.04,143.80,3.55,-30.12,256.00,0.00,0.00,-0.01,66.53,-78.42,66.53,0,0
15/11/2018 12:42:09,45.42,-5.839588,-35.201309,0.00,0.00,4.00,4.00,323.07,0.28,-138.47,-6.68,-3.00,48.42,32.00,1004.16,143.05,4.56,-30.12,256.00,0.00,-0.00,-0.01,66.53,-77.18,66.53,0,0
15/11/2018 12:42:09,45.77,-5.839588,-35.201309,0.00,0.00,2.00,4.00,323.07,0.28,-138.29,-6.48,-2.82,48.64,32.00,1003.98,143.55,4.56,-30.12,256.00,0.00,0.00,-0.02,66.53,-77.59,66.53,0,0
15/11/2018 12:42:10,46.12,-5.839588,-35.201313,0.00,0.00,0.00,1.00,323.07,0.28,-138.37,-6.75,-2.83,48.34,32.00,1004.13,142.21,4.56,-30.12,257.03,-0.00,-0.00,-0.00,66.53,-76.76,66.53,0,0
15/11/2018 12:42:10,46.47,-5.839588,-35.201313,0.00,0.00,0.00,0.00,227.64,0.70,-138.40,-6.48,-2.99,48.64,32.00,1004.17,142.71,3.55,-30.12,256.00,0.00,0.00,-0.01,66.53,-77.59,66.53,0,0
15/11/2018 12:42:10,46.82,-5.839588,-35.201313,0.00,0.00,0.00,0.00,227.64,0.70,-138.56,-6.71,-2.98,48.07,32.00,1004.10,143.55,5.58,-31.12,256.00,0.00,0.00,-0.02,67.37,-77.18,67.37,0,0
15/11/2018 12:42:11,47.17,-5.839588,-35.201313,0.00,0.00,0.00,1.00,227.64,0.70,-138.25,-6.47,-3.04,48.81,32.00,1004.13,143.05,3.55,-30.12,254.97,0.01,0.00,-0.01,66.95,-78.42,66.95,0,0
15/11/2018 12:42:11,47.51,-5.839588,-35.201313,0.00,0.00,0.00,0.00,227.64,0.70,-138.45,-6.61,-2.97,49.06,32.00,1004.16,143.80,3.55,-30.12,256.00,0.01,-0.00,-0.01,66.10,-78.42,66.10,0,0
15/11/2018 12:42:11,47.85,-5.839588,-35.201313,0.00,0.00,0.00,1.00,227.64,0.70,-138.52,-6.74,-2.98,49.27,32.00,1004.10,143.05,4.56,-30.12,254.97,-0.00,0.00,-0.01,66.10,-78.84,66.10,0,0
15/11/2018 12:42:12,48.19,-5.839588,-35.201313,0.00,0.00,0.00,0.00,253.76,0.61,-139.00,-6.68,-3.83,48.70,32.00,1004.07,143.80,5.58,-31.12,256.00,0.00,0.00,-0.01,68.22,-77.18,68.22,0,0
15/11/2018 12:42:12,48.54,-5.839588,-35.201313,0.00,0.00,0.00,0.00,253.76,0.61,-138.71,-6.73,-3.23,48.43,32.00,1004.07,142.71,3.55,-29.11,256.00,0.00,-0.00,-0.01,67.37,-78.01,67.37,0,0
15/11/2018 12:42:13,48.88,-5.839587,-35.201313,0.00,0.00,0.00,1.00,253.76,0.61,-138.53,-6.43,-2.78,48.12,32.00,1004.07,143.05,4.56,-30.12,256.00,0.01,-0.00,-0.01,68.22,-78.42,68.22,0,0
15/11/2018 12:42:13,49.22,-5.839587,-35.201313,0.00,0.00,0.00,4.00,253.76,0.61,-138.30,-6.19,-2.83,49.13,32.10,1004.04,143.80,3.55,-30.12,256.00,-0.00,0.00,-0.01,66.53,-78.84,66.53,0,0
15/11/2018 12:42:13,49.57,-5.839587,-35.201313,0.00,0.00,0.00,4.00,253.76,0.61,-138.61,-6.48,-2.94,48.01,32.10,1004.13,143.80,4.56,-31.12,256.00,0.00,0.00,-0.01,67.80,-77.59,67.80,0,0
15/11/2018 12:42:14,49.92,-5.839587,-35.201313,0.00,0.00,0.00,3.00,250.71,0.78,-138.55,-6.56,-3.20,48.18,32.10,1004.10,143.55,4.56,-30.12,257.03,0.00,0.00,-0.01,67.80,-78.01,67.80,0,0
15/11/2018 12:42:14,50.27,-5.839587,-35.201313,0.00,0.00,0.00,3.00,250.71,0.78,-138.47,-6.70,-3.19,48.59,32.10,1004.01,143.80,4.56,-32.13,254.97,0.00,0.00,-0.01,66.95,-78.01,66.95,0,0
15/11/2018 12:42:15,50.62,-5.839588,-35.201313,0.00,0.00,0.00,4.00,250.71,0.78,-138.53,-6.60,-3.01,48.25,32.10,1004.13,143.05,5.58,-31.12,256.00,0.00,0.00,-0.01,66.10,-76.35,66.10,0,0
15/11/2018 12:42:15,50.97,-5.839588,-35.201313,0.00,0.00,0.00,4.00,250.71,0.78,-138.54,-6.51,-3.05,48.95,32.00,1004.10,143.30,4.56,-31.12,252.91,0.00,0.00,-0.01,66.10,-78.01,66.10,0,0
15/11/2018 12:42:15,51.31,-5.839588,-35.201313,0.00,0.00,0.00,3.00,250.71,0.78,-138.80,-6.61,-3.17,49.39,32.00,1004.13,143.05,3.55,-30.12,254.97,0.00,0.00,-0.01,65.68,-78.84,65.68,0,0
15/11/2018 12:42:15,51.65,-5.839588,-35.201313,0.00,0.00,0.00,3.00,250.71,0.78,-138.82,-6.43,-1.83,48.45,32.00,1004.20,142.46,3.55,-30.12,253.94,0.01,0.01,-0.01,66.10,-77.18,66.10,0,0
15/11/2018 12:42:17,51.99,-5.839590,-35.201313,0.00,0.00,0.00,3.00,227.27,0.37,-135.37,4.75,-4.20,44.34,32.00,1004.13,143.30,62.35,-12.05,287.94,1.19,0.00,-0.33,68.22,-70.54,68.22,0,0
15/11/2018 12:42:17,52.33,-5.839590,-35.201313,0.00,0.00,0.00,4.00,227.27,0.37,-106.02,1.19,-13.53,23.49,32.00,1004.13,143.05,43.09,-15.06,245.70,-0.02,-0.01,-1.65,93.22,-38.17,93.22,0,0
15/11/2018 12:42:17,52.68,-5.839590,-35.201313,0.00,0.00,0.00,3.00,227.27,0.37,-71.73,1.61,-1.58,-17.40,32.00,1004.13,143.30,-42.08,-31.12,263.21,0.30,0.16,-1.52,102.97,30.29,102.97,0,0
15/11/2018 12:42:17,53.03,-5.839590,-35.201313,0.00,0.00,0.00,4.00,227.27,0.37,-37.65,-10.99,10.77,-50.25,32.00,1004.10,143.80,-77.56,-22.09,231.28,0.17,0.07,-1.30,76.69,92.53,76.69,0,0
15/11/2018 12:42:18,53.38,-5.839588,-35.201316,0.00,0.00,0.00,4.00,298.69,1.43,-26.73,7.16,7.49,-64.34,32.00,1004.07,142.80,-15.71,-12.05,271.45,0.74,-0.37,-0.41,55.08,121.99,55.08,0,0
15/11/2018 12:42:19,53.73,-5.839587,-35.201320,0.00,0.00,0.00,4.00,298.69,1.43,-14.64,6.15,7.70,-76.33,32.00,1004.13,143.30,-1.52,46.18,201.40,-0.03,0.10,-0.51,32.63,136.93,32.63,0,0
15/11/2018 12:42:19,54.10,-5.839587,-35.201320,0.00,0.00,0.00,4.00,298.69,1.43,-4.61,1.51,6.91,-84.21,32.00,1004.04,143.30,-34.98,-36.14,239.52,-0.26,0.03,-0.29,10.17,135.68,10.17,0,0
15/11/2018 12:42:19,54.47,-5.839587,-35.201320,0.00,0.00,0.00,4.00,298.69,1.43,3.78,-9.71,2.99,-89.99,32.00,1004.19,143.05,-24.84,-54.21,337.38,0.30,0.23,-0.24,0.42,124.07,0.42,0,0
15/11/2018 12:42:20,54.82,-5.839587,-35.201328,0.00,0.00,0.00,4.00,219.90,2.59,-5.23,6.78,0.17,-87.41,32.00,1004.32,141.96,-64.38,18.07,239.52,0.74,-0.20,0.37,6.36,138.17,6.36,0,0
15/11/2018 12:42:20,55.15,-5.839587,-35.201328,0.00,0.00,0.00,4.00,219.90,2.59,3.34,-9.70,11.71,-87.91,32.00,1004.16,141.71,-57.28,29.11,223.03,-0.87,-0.04,-0.89,-0.85,136.93,-0.85,0,0
15/11/2018 12:42:21,55.50,-5.839590,-35.201328,0.00,0.00,0.00,3.00,219.90,2.59,-3.50,2.67,8.09,-83.62,32.00,1004.20,142.80,90.74,-44.17,287.94,0.39,0.22,0.05,10.17,124.48,10.17,0,0
15/11/2018 12:42:21,55.87,-5.839590,-35.201328,0.00,0.00,0.00,3.00,219.90,2.59,-3.91,-3.37,-7.11,-88.32,32.00,1004.29,142.46,8.62,-13.05,244.67,-0.21,0.17,0.01,6.78,133.20,6.78,0,0
15/11/2018 12:42:21,56.21,-5.839590,-35.201328,0.00,0.00,0.00,3.00,219.90,2.59,-5.17,-2.41,-1.52,-86.72,32.00,1004.20,141.96,-2.53,-13.05,264.24,0.08,0.13,0.10,7.63,130.29,7.63,0,0
15/11/2018 12:42:22,56.58,-5.839588,-35.201328,0.00,0.00,0.00,4.00,88.06,0.63,-6.93,-3.42,-0.74,-84.51,32.00,1004.20,142.21,-1.52,-13.05,252.91,-0.07,0.15,0.12,13.14,131.95,13.14,0,0
15/11/2018 12:42:22,56.94,-5.839588,-35.201328,0.00,0.00,0.00,4.00,88.06,0.63,-8.56,-1.92,-2.29,-82.62,32.00,1004.20,142.80,0.51,-12.05,253.94,0.07,-0.05,0.08,17.80,131.12,17.80,0,0
15/11/2018 12:42:22,57.30,-5.839588,-35.201328,0.00,0.00,0.00,4.00,88.06,0.63,-10.11,-2.61,-2.28,-80.27,32.00,1004.29,142.21,-1.52,-12.05,258.06,-0.03,-0.10,0.06,22.03,130.29,22.03,0,0
15/11/2018 12:42:22,57.65,-5.839588,-35.201328,0.00,0.00,0.00,4.00,88.06,0.63,-11.93,-2.14,-1.14,-79.57,32.00,1004.26,142.21,-2.53,-13.05,257.03,0.05,0.05,0.09,24.15,131.12,24.15,0,0
15/11/2018 12:42:22,58.01,-5.839588,-35.201328,0.00,0.00,0.00,3.00,88.06,0.63,-13.11,-2.96,-1.60,-77.16,32.00,1004.23,142.80,-2.53,-13.05,259.09,-0.03,0.01,0.07,30.08,130.71,30.08,0,0
15/11/2018 12:42:24,58.37,-5.839582,-35.201328,0.00,0.00,0.00,4.00,88.06,0.63,-14.85,-2.48,-2.41,-75.81,32.00,1004.23,142.21,-1.52,-12.05,253.94,0.01,-0.09,0.07,32.63,129.05,32.63,0,0
15/11/2018 12:42:24,58.72,-5.839582,-35.201328,0.00,0.00,0.00,4.00,88.06,0.63,-16.42,-2.42,-1.46,-74.40,32.00,1004.19,143.30,-1.52,-14.05,258.06,0.01,0.00,0.07,35.59,127.80,35.59,0,0
15/11/2018 12:42:24,59.06,-5.839582,-35.201328,0.00,0.00,0.00,3.00,88.06,0.63,-17.69,-2.94,-1.45,-71.90,32.00,1004.23,142.21,-1.52,-11.04,254.97,-0.04,0.00,0.06,41.95,127.39,41.95,0,0
15/11/2018 12:42:25,59.41,-5.839578,-35.201324,0.00,0.00,0.00,4.00,2.44,0.85,-19.30,-2.24,-1.83,-71.19,32.00,1004.26,142.21,-2.53,-13.05,259.09,0.04,-0.03,0.06,43.22,126.56,43.22,0,0
15/11/2018 12:42:26,59.75,-5.839578,-35.201324,0.00,0.00,0.00,3.00,2.44,0.85,-20.61,-2.64,-0.82,-69.42,32.00,1004.23,143.30,-2.53,-14.05,258.06,-0.01,0.09,0.07,47.46,125.31,47.46,0,0
15/11/2018 12:42:26,60.11,-5.839578,-35.201324,0.00,0.00,0.00,4.00,2.44,0.85,-22.12,-2.73,-1.99,-68.13,32.00,1004.19,141.96,-1.52,-13.05,258.06,0.00,-0.06,0.05,49.58,122.41,49.58,0,0
15/11/2018 12:42:26,60.48,-5.839578,-35.201324,0.00,0.00,-23.00,0.00,2.44,0.85,-23.20,-2.73,-2.06,-67.32,32.00,1004.19,143.55,-2.53,-12.05,258.06,0.00,-0.03,0.03,51.27,121.99,51.27,0,1
15/11/2018 12:42:26,60.85,-5.839578,-35.201324,0.00,0.00,-27.00,0.00,2.44,0.85,-24.12,-2.81,-1.43,-66.37,32.00,1004.10,142.55,-2.53,-13.05,259.09,-0.01,0.01,0.03,53.81,122.82,53.81,0,1
15/11/2018 12:42:27,61.22,-5.839578,-35.201320,0.00,0.00,-27.00,0.00,142.89,0.67,-24.80,-2.39,-1.91,-65.60,32.00,1004.23,141.96,-2.53,-11.04,258.06,0.01,-0.03,0.02,55.08,121.16,55.08,0,1
15/11/2018 12:42:28,61.59,-5.839582,-35.201320,0.00,0.00,-27.00,0.00,142.89,0.67,-25.57,-2.66,-1.10,-64.19,32.00,1004.23,142.21,-1.52,-13.05,259.09,-0.01,0.06,0.02,57.63,118.67,57.63,0,1
15/11/2018 12:42:28,61.93,-5.839582,-35.201320,0.00,0.00,-32.00,0.00,142.89,0.67,-26.15,-2.83,-1.42,-63.52,32.00,1004.16,142.21,-2.53,-12.05,254.97,-0.02,0.03,0.03,59.32,117.84,59.32,0,1
15/11/2018 12:42:28,62.30,-5.839582,-35.201320,0.00,0.00,-34.00,0.00,142.89,0.67,-26.90,-2.30,-1.17,-63.24,32.00,1004.35,141.96,-1.52,-13.05,259.09,0.03,0.04,0.03,60.59,118.67,60.59,0,1
15/11/2018 12:42:29,62.67,-5.839578,-35.201324,0.00,0.00,-36.00,0.00,142.89,0.67,-27.25,-2.70,-2.28,-63.04,32.00,1004.07,142.46,-2.53,-12.05,257.03,0.00,-0.09,0.01,60.59,118.26,60.59,0,1
15/11/2018 12:42:29,63.04,-5.839578,-35.201324,0.00,0.00,-39.00,0.00,142.89,0.67,-27.67,-2.88,-2.66,-62.31,32.00,1004.26,142.80,-3.55,-12.05,261.15,-0.03,-0.11,-0.00,61.02,116.18,61.02,0,1
15/11/2018 12:42:29,63.41,-5.839578,-35.201324,0.00,0.00,-39.00,0.00,142.89,0.67,-27.92,-2.52,-1.09,-62.08,32.00,1004.16,143.30,-3.55,-12.05,252.91,-0.02,0.02,-0.01,61.02,116.60,61.02,0,1
15/11/2018 12:42:30,63.78,-5.839573,-35.201328,0.00,0.00,-41.00,0.00,313.78,1.06,-28.19,-2.37,-1.00,-62.27,32.00,1004.20,143.30,-2.53,-12.05,254.97,0.03,0.06,0.01,61.86,117.01,61.86,0,1
15/11/2018 12:42:31,64.11,-5.839570,-35.201328,0.00,0.00,-41.00,0.00,313.78,1.06,-27.72,-2.54,-2.11,-62.60,32.00,1004.13,143.05,-2.53,-13.05,258.06,0.02,-0.02,-0.02,61.86,117.43,61.86,0,1
15/11/2018 12:42:31,64.48,-5.839570,-35.201328,0.00,0.00,-39.00,0.00,313.78,1.06,-27.64,-2.43,-1.66,-62.13,32.00,1004.13,143.30,-2.53,-14.05,259.09,-0.01,-0.03,-0.02,61.44,116.60,61.44,0,1
15/11/2018 12:42:31,64.85,-5.839570,-35.201328,0.00,0.00,-39.00,0.00,313.78,1.06,-27.30,-2.59,-1.01,-62.68,32.00,1004.20,142.46,-2.53,-12.05,257.03,0.02,0.08,-0.02,61.44,117.43,61.44,0,1
15/11/2018 12:42:32,65.23,-5.839570,-35.201328,0.00,0.00,-36.00,0.00,313.78,1.06,-26.70,-3.01,-1.67,-62.88,32.00,1004.16,143.05,-1.52,-12.05,256.00,-0.04,-0.00,-0.04,61.02,118.26,61.02,0,1
15/11/2018 12:42:32,65.59,-5.839570,-35.201328,0.00,0.00,-36.00,0.00,313.78,1.06,-26.17,-4.05,-1.69,-63.57,32.00,1004.29,142.80,0.51,-39.15,254.97,0.08,-0.02,-0.04,58.90,117.84,58.90,0,1
15/11/2018 12:42:32,65.97,-5.839570,-35.201328,0.00,0.00,-30.00,0.00,313.78,1.06,-21.07,-0.95,0.29,-67.63,32.00,1004.16,142.46,3.55,3.01,252.91,0.01,0.19,-0.33,52.12,123.65,52.12,0,1
15/11/2018 12:42:32,66.34,-5.839570,-35.201328,0.00,0.00,-5.00,0.00,313.78,1.06,-14.82,0.32,-0.68,-73.79,32.00,1004.20,142.80,-9.63,1.00,262.18,0.04,0.16,-0.23,39.41,126.56,39.41,0,1
15/11/2018 12:42:34,66.71,-5.839568,-35.201324,0.00,0.00,6.00,0.00,313.78,1.06,-10.12,-2.21,-2.32,-77.06,32.00,1004.23,141.71,-1.52,-13.05,257.03,-0.03,-0.10,-0.25,29.66,129.88,29.66,0,1
15/11/2018 12:42:34,67.09,-5.839568,-35.201324,0.00,0.00,20.00,0.00,313.78,1.06,-6.63,-2.70,-2.39,-81.05,32.00,1004.20,142.46,-3.55,-13.05,259.09,-0.04,-0.12,-0.22,19.92,129.88,19.92,0,1
15/11/2018 12:42:34,67.45,-5.839568,-35.201324,0.00,0.00,31.00,0.00,313.78,1.06,-4.04,-3.02,-0.41,-83.48,32.00,1004.16,142.21,57.28,-30.12,279.69,-0.04,0.10,-0.12,13.98,130.71,13.98,0,1
15/11/2018 12:42:35,67.82,-5.839572,-35.201320,0.00,0.00,36.00,0.00,313.78,1.06,-4.95,-3.95,-2.66,-86.06,32.00,1004.10,142.21,-10.65,-17.07,260.12,-0.05,0.08,0.08,11.86,130.71,11.86,0,1
15/11/2018 12:42:35,68.20,-5.839572,-35.201320,0.00,0.00,31.00,0.00,313.78,1.06,-4.31,-0.52,-4.89,-84.80,32.00,1004.10,142.80,-17.74,-3.01,267.33,0.11,-0.13,-0.10,11.02,129.46,11.02,0,1
15/11/2018 12:42:35,68.57,-5.839572,-35.201320,0.00,0.00,36.00,0.00,313.78,1.06,-3.37,-3.17,-1.87,-83.62,32.00,1004.38,142.80,2.53,-15.06,256.00,-0.05,-0.02,-0.13,11.86,131.12,11.86,0,1
15/11/2018 12:42:35,68.93,-5.839572,-35.201320,0.00,0.00,36.00,0.00,313.78,1.06,-4.48,-2.80,-1.01,-84.81,32.00,1004.23,142.21,-0.51,-21.08,257.03,-0.08,-0.05,0.00,11.86,129.05,11.86,0,1
15/11/2018 12:42:36,69.31,-5.839575,-35.201320,0.00,0.00,27.00,0.00,206.70,0.87,-6.68,-3.34,0.80,-84.30,32.00,1004.13,143.05,-8.62,-16.06,257.03,0.04,0.04,-0.03,13.14,130.71,13.14,0,1
15/11/2018 12:42:36,69.68,-5.839575,-35.201320,0.00,0.00,29.00,0.00,206.70,0.87,-6.69,-4.04,-0.01,-84.00,32.00,1004.20,142.21,-1.52,-11.04,256.00,-0.01,0.04,0.05,13.56,130.29,13.56,0,1
15/11/2018 12:42:36,70.06,-5.839575,-35.201320,0.00,0.00,27.00,0.00,206.70,0.87,-6.28,-2.43,-2.15,-83.72,32.00,1004.20,142.21,-0.51,-10.04,252.91,0.01,0.00,-0.04,14.83,131.54,14.83,0,1
15/11/2018 12:42:38,70.43,-5.839575,-35.201320,0.00,0.00,27.00,0.00,206.70,0.87,-7.55,-2.95,-0.49,-83.36,32.00,1004.20,142.80,-2.53,-10.04,252.91,0.01,0.06,0.05,15.25,130.29,15.25,0,1
15/11/2018 12:42:38,70.79,-5.839575,-35.201320,0.00,0.00,22.00,0.00,206.70,0.87,-8.39,-2.03,-1.54,-81.85,32.00,1004.16,143.05,-1.52,-12.05,262.18,0.06,0.01,0.04,19.07,130.29,19.07,0,1
15/11/2018 12:42:38,71.17,-5.839575,-35.201320,0.00,0.00,22.00,0.00,206.70,0.87,-5.99,-1.02,-1.17,-82.51,32.00,1004.20,142.80,-10.65,-4.02,267.33,0.00,-0.07,-0.23,15.68,130.71,15.68,0,1
15/11/2018 12:42:38,71.54,-5.839575,-35.201320,45.00,0.00,31.00,0.00,206.70,0.87,-4.64,-2.29,-1.23,-84.92,32.00,1004.13,143.05,-1.52,-11.04,259.09,-0.02,0.04,-0.05,11.44,130.29,11.44,0,1
15/11/2018 12:42:40,71.90,-5.839575,-35.201316,90.00,0.00,33.00,24.00,206.70,0.87,-5.13,-2.56,-2.03,-85.40,32.00,1004.10,143.05,8.62,0.00,246.73,-0.01,-0.02,0.04,10.59,130.71,10.59,0,1
15/11/2018 12:42:40,72.28,-5.839575,-35.201316,135.00,0.00,31.00,49.00,206.70,0.87,-6.75,2.07,-4.36,-83.73,32.00,1004.20,142.21,6.59,21.08,253.94,0.04,0.04,0.05,15.68,130.71,15.68,0,1
15/11/2018 12:42:40,72.65,-5.839575,-35.201316,135.00,0.00,31.00,74.00,206.70,0.87,-5.27,1.38,-2.00,-83.45,32.00,1004.10,143.05,-4.56,7.03,258.06,-0.00,-0.03,-0.10,15.68,129.88,15.68,0,1
15/11/2018 12:42:41,73.02,-5.839573,-35.201316,112.50,0.00,38.00,74.00,206.70,0.87,-1.87,-0.87,-1.45,-86.51,31.80,1003.55,148.16,-4.56,5.02,264.24,0.05,-0.02,-0.19,6.78,130.71,6.78,0,1
15/11/2018 12:42:41,73.39,-5.839573,-35.201316,180.00,0.00,51.00,61.00,206.70,0.87,1.79,-0.91,-5.62,-89.29,31.80,1003.49,148.41,-7.60,5.02,259.09,-0.01,0.01,-0.21,0.85,130.29,0.85,0,1
15/11/2018 12:42:41,73.76,-5.839573,-35.201316,135.00,0.00,63.00,100.00,206.70,0.87,6.46,2.48,-3.20,-93.46,31.80,1003.46,149.16,-5.58,8.03,274.54,0.02,0.06,-0.26,-8.90,128.22,-8.90,0,1
15/11/2018 12:42:42,74.13,-5.839572,-35.201320,90.00,0.00,76.00,74.00,328.65,2.65,12.93,1.42,-0.47,-100.77,31.80,1003.43,148.41,6.59,-21.08,257.03,0.01,-0.01,-0.34,-24.15,124.90,-24.15,0,1
15/11/2018 12:42:43,74.50,-5.839567,-35.201320,45.00,0.00,90.00,49.00,328.65,2.65,19.67,-3.36,-5.83,-107.42,31.90,1003.35,149.42,14.70,-5.02,254.97,0.01,-0.08,-0.35,-37.29,118.26,-37.29,0,1
15/11/2018 12:42:43,74.87,-5.839567,-35.201320,0.00,0.00,90.00,24.00,328.65,2.65,25.88,0.40,-1.38,-113.58,31.90,1003.49,148.66,8.62,-20.08,266.30,-0.01,0.04,-0.30,-46.61,108.71,-46.61,0,1
15/11/2018 12:42:43,75.25,-5.839567,-35.201320,45.00,0.00,90.00,0.00,328.65,2.65,31.79,-4.31,-2.84,-118.42,31.90,1003.40,148.66,10.65,-2.01,262.18,-0.07,-0.03,-0.32,-53.39,97.93,-53.39,0,1
15/11/2018 12:42:44,75.59,-5.839560,-35.201320,90.00,0.00,90.00,3.00,338.26,3.30,37.25,-0.73,-4.85,-126.82,32.00,1003.43,149.42,9.63,2.01,250.85,-0.05,-0.02,-0.30,-62.71,85.48,-62.71,0,0
15/11/2018 12:42:44,75.94,-5.839560,-35.201320,135.00,0.00,0.00,36.00,338.26,3.30,38.74,0.85,-5.41,-129.15,32.00,1003.46,149.42,9.63,0.00,264.24,0.04,0.03,-0.00,-63.98,80.91,-63.98,0,0
15/11/2018 12:42:45,76.28,-5.839552,-35.201320,180.00,0.00,-90.00,37.00,338.26,3.30,31.31,-0.20,-2.88,-122.65,32.00,1003.40,148.91,13.69,-13.05,264.24,0.05,0.05,0.41,-57.20,91.29,-57.20,0,0
15/11/2018 12:42:45,76.63,-5.839552,-35.201320,180.00,0.00,-90.00,37.00,338.26,3.30,21.15,-3.54,-3.87,-113.46,32.00,1003.32,150.84,-17.74,-3.01,271.45,0.01,-0.06,0.44,-46.19,107.05,-46.19,0,0
15/11/2018 12:42:45,76.97,-5.839552,-35.201320,112.50,0.00,-48.00,37.00,338.26,3.30,6.68,-4.97,6.56,-97.40,32.00,1003.26,149.58,-15.71,0.00,266.30,-0.05,-0.04,0.53,-19.49,124.07,-19.49,0,0
15/11/2018 12:42:46,77.32,-5.839543,-35.201316,135.00,0.00,-90.00,36.00,338.26,3.30,9.03,1.01,1.48,-98.04,32.10,1003.26,149.83,-5.58,-2.01,274.54,0.11,0.12,-0.26,-17.37,121.58,-17.37,0,0
15/11/2018 12:42:46,77.67,-5.839543,-35.201316,157.50,0.00,-45.00,37.00,338.26,3.30,18.93,0.93,-1.60,-105.50,32.10,1003.23,149.83,-6.59,-6.02,268.36,0.11,-0.12,-0.52,-32.63,116.18,-32.63,0,0
15/11/2018 12:42:47,78.01,-5.839533,-35.201313,135.00,0.00,-90.00,0.00,24.97,3.37,16.29,-0.51,3.98,-106.69,32.10,1003.26,150.59,-0.51,-7.03,264.24,-0.00,0.60,0.45,-34.75,114.11,-34.75,0,0
15/11/2018 12:42:47,78.35,-5.839533,-35.201313,157.50,0.00,-90.00,0.00,24.97,3.37,2.27,-5.29,-5.24,-96.77,32.10,1003.23,150.34,-3.55,-2.01,264.24,-0.07,-0.01,0.58,-13.98,125.31,-13.98,0,0
15/11/2018 12:42:47,78.72,-5.839533,-35.201313,112.50,0.00,-90.00,0.00,24.97,3.37,-2.92,0.55,-2.94,-88.53,32.10,1003.37,149.58,-8.62,-16.06,262.18,0.03,0.07,0.25,2.97,126.97,2.97,0,0
15/11/2018 12:42:48,79.06,-5.839523,-35.201313,90.00,0.00,0.00,0.00,24.97,3.37,-2.22,-2.23,-1.22,-85.65,32.20,1003.40,149.42,-8.62,-15.06,251.88,-0.02,-0.07,-0.18,8.05,129.88,8.05,0,0
15/11/2018 12:42:48,79.41,-5.839523,-35.201313,90.00,0.00,-52.00,0.00,24.97,3.37,7.16,-2.57,-1.77,-93.18,32.20,1003.26,150.34,1.52,-23.09,259.09,0.04,0.07,-0.50,-7.20,126.56,-7.20,0,0
15/11/2018 12:42:49,79.75,-5.839518,-35.201313,135.00,0.00,-90.00,0.00,24.97,3.37,15.34,-3.83,-2.97,-102.24,32.20,1003.37,149.42,-7.60,-14.05,265.27,0.01,-0.11,-0.39,-26.27,119.50,-26.27,0,0
15/11/2018 12:42:49,80.11,-5.839518,-35.201313,135.00,0.00,-90.00,0.00,345.46,2.48,13.17,-3.27,-1.41,-103.65,32.20,1003.35,149.16,-3.55,-20.08,266.30,-0.01,0.06,0.18,-29.24,116.18,-29.24,0,0
15/11/2018 12:42:49,80.46,-5.839518,-35.201313,135.00,0.00,-90.00,0.00,345.46,2.48,5.93,-3.71,-1.19,-97.81,32.30,1003.37,148.91,-4.56,-17.07,259.09,-0.01,0.04,0.34,-17.80,124.48,-17.80,0,0
15/11/2018 12:42:50,80.80,-5.839515,-35.201320,135.00,0.00,-90.00,0.00,345.46,2.48,-0.42,-2.85,-0.12,-92.06,32.30,1003.37,149.58,-3.55,-15.06,264.24,0.05,0.12,0.31,-4.66,126.14,-4.66,0,0
15/11/2018 12:42:50,81.14,-5.839515,-35.201320,112.50,0.00,-90.00,37.00,345.46,2.48,-3.53,-3.30,-2.34,-88.11,32.30,1003.32,149.42,-0.51,-14.05,262.18,-0.06,-0.13,0.13,4.66,128.63,4.66,0,0
15/11/2018 12:42:51,81.49,-5.839513,-35.201320,157.50,0.00,-90.00,44.00,345.46,2.48,-6.52,-1.43,-2.66,-84.31,32.30,1003.32,149.83,-18.76,10.04,264.24,0.03,0.03,0.16,12.29,128.63,12.29,0,0
15/11/2018 12:42:51,81.83,-5.839513,-35.201320,157.50,0.00,-90.00,45.00,345.46,2.48,-10.50,0.75,-2.65,-80.46,32.40,1003.32,150.84,-14.70,4.02,273.51,0.00,-0.02,0.19,19.07,128.22,19.07,0,0
15/11/2018 12:42:51,82.17,-5.839513,-35.201320,112.50,0.00,-88.00,45.00,345.46,2.48,-16.53,0.03,-0.51,-75.62,32.40,1003.40,148.58,-19.77,9.04,265.27,-0.02,0.00,0.31,30.08,126.56,30.08,0,0
15/11/2018 12:42:52,82.52,-5.839508,-35.201320,112.50,0.00,-90.00,45.00,345.46,2.48,-23.24,0.93,0.78,-68.42,32.40,1003.43,149.16,-23.83,9.04,262.18,-0.05,-0.06,0.35,45.76,124.07,45.76,0,0
15/11/2018 12:42:52,82.87,-5.839508,-35.201320,112.50,0.00,-90.00,45.00,345.46,2.48,-31.13,-1.93,0.55,-61.06,32.40,1003.40,148.33,-22.81,8.03,263.21,0.04,0.05,0.39,59.75,116.18,59.75,0,0
15/11/2018 12:42:52,83.22,-5.839508,-35.201320,135.00,0.00,-90.00,45.00,345.46,2.48,-38.40,-2.73,-1.23,-54.24,32.50,1003.35,149.16,-21.80,3.01,263.21,0.03,-0.07,0.37,76.27,109.54,76.27,0,0
15/11/2018 12:42:53,83.57,-5.839502,-35.201320,112.50,0.00,-88.00,42.00,341.09,3.04,-45.66,-2.25,-0.27,-46.45,32.50,1003.47,147.82,-14.70,-4.02,253.94,-0.02,0.06,0.37,84.32,92.95,84.32,0,0
15/11/2018 12:42:53,83.91,-5.839502,-35.201320,112.50,0.00,-25.00,42.00,341.09,3.04,-51.36,-1.36,2.05,-41.58,32.50,1003.47,148.58,-19.77,5.02,267.33,-0.01,0.22,0.20,93.22,83.40,93.22,0,0
15/11/2018 12:42:54,84.25,-5.839495,-35.201324,112.50,0.00,0.00,42.00,341.09,3.04,-46.10,1.05,2.17,-41.72,32.50,1003.47,149.42,-16.73,7.03,264.24,0.03,-0.15,-0.34,91.10,83.82,91.10,0,0
15/11/2018 12:42:54,84.59,-5.839495,-35.201324,112.50,0.00,0.00,44.00,341.09,3.04,-34.81,-1.97,-3.41,-50.67,32.50,1003.44,149.16,7.60,-24.09,264.24,0.10,-0.09,-0.57,78.81,100.00,78.81,0,0
15/11/2018 12:42:54,84.94,-5.839495,-35.201324,45.00,0.00,0.00,43.00,341.09,3.04,-28.87,-0.12,-2.93,-61.11,32.50,1003.47,149.16,14.70,-17.07,264.24,-0.04,-0.13,-0.18,64.83,114.11,64.83,0,0
15/11/2018 12:42:55,85.28,-5.839490,-35.201324,45.00,0.00,0.00,44.00,315.61,2.48,-30.60,-3.41,-2.53,-60.04,32.50,1003.50,148.83,7.60,-23.09,261.15,0.03,0.08,0.09,65.25,109.54,65.25,0,0
15/11/2018 12:42:55,85.62,-5.839490,-35.201324,45.00,0.00,0.00,43.00,315.61,2.48,-31.93,0.67,-0.29,-58.63,32.50,1003.37,149.08,-16.73,8.03,277.63,0.08,-0.06,0.06,69.49,110.79,69.49,0,0
15/11/2018 12:42:56,85.98,-5.839485,-35.201328,45.00,0.00,0.00,44.00,315.61,2.48,-32.55,-2.54,-1.66,-56.27,32.50,1003.47,149.08,-3.55,-12.05,262.18,0.02,-0.03,0.02,72.03,111.62,72.03,0,0
15/11/2018 12:42:56,86.33,-5.839485,-35.201328,112.50,0.00,0.00,43.00,315.61,2.48,-33.00,-4.40,-3.62,-57.20,32.60,1003.37,148.08,-2.53,-7.03,267.33,-0.01,-0.01,0.00,72.03,111.20,72.03,0,0
15/11/2018 12:42:56,86.67,-5.839485,-35.201328,112.50,0.00,-18.00,43.00,315.61,2.48,-34.20,-5.79,-2.75,-54.49,32.60,1003.44,148.58,1.52,-7.03,265.27,-0.01,0.02,0.06,78.39,109.96,78.39,0,0
15/11/2018 12:42:57,87.01,-5.839478,-35.201335,112.50,0.00,-79.00,44.00,306.45,3.87,-30.03,-6.13,-1.36,-57.83,32.60,1003.47,149.08,1.52,-25.10,261.15,0.02,0.00,-0.30,67.37,107.88,67.37,0,0
15/11/2018 12:42:58,87.36,-5.839473,-35.201343,112.50,0.00,-88.00,42.00,306.45,3.87,-22.33,-3.48,-1.40,-65.17,32.60,1003.44,148.58,2.53,-9.04,252.91,-0.00,0.03,-0.38,56.78,118.67,56.78,0,0
15/11/2018 12:42:58,87.70,-5.839473,-35.201343,112.50,0.00,-86.00,44.00,306.45,3.87,-21.79,-1.69,-2.94,-67.89,32.60,1003.38,148.83,5.58,-12.05,251.88,-0.06,-0.19,0.07,50.85,120.75,50.85,0,0
15/11/2018 12:42:58,88.04,-5.839473,-35.201343,112.50,0.00,-88.00,43.00,306.45,3.87,-32.84,0.54,2.23,-59.88,32.60,1003.41,148.83,-18.76,3.01,258.06,0.04,0.13,0.55,66.10,112.45,66.10,0,0
15/11/2018 12:42:58,88.38,-5.839473,-35.201343,112.50,0.00,-86.00,43.00,306.45,3.87,-43.29,2.09,2.78,-48.79,32.70,1003.44,148.83,-20.78,-2.01,265.27,-0.03,-0.01,0.48,84.32,99.17,84.32,0,0
15/11/2018 12:42:59,88.73,-5.839468,-35.201351,112.50,0.00,-88.00,44.00,310.33,3.76,-45.10,-5.63,0.71,-44.64,32.70,1003.44,149.33,-1.52,-19.07,246.73,-0.05,0.01,-0.02,86.86,89.21,86.86,0,0
15/11/2018 12:43:00,89.07,-5.839463,-35.201358,112.50,0.00,-88.00,42.00,310.33,3.76,-39.19,-3.10,0.49,-49.65,32.70,1003.38,149.08,-21.80,-1.00,264.24,0.09,0.02,-0.32,83.90,95.85,83.90,0,0
15/11/2018 12:43:00,89.41,-5.839463,-35.201358,112.50,0.00,-86.00,44.00,310.33,3.76,-32.03,0.92,0.93,-54.94,32.70,1003.41,149.58,-11.66,1.00,268.36,0.04,-0.09,-0.34,72.88,106.64,72.88,0,0
15/11/2018 12:43:00,89.76,-5.839463,-35.201358,112.50,0.00,-86.00,44.00,310.33,3.76,-35.41,-1.94,-3.06,-55.61,32.70,1003.41,149.83,-10.65,5.02,261.15,-0.03,0.00,0.30,73.73,107.88,73.73,0,0
15/11/2018 12:43:00,90.11,-5.839463,-35.201358,112.50,0.00,-86.00,42.00,310.33,3.76,-46.15,2.19,1.75,-46.07,32.70,1003.44,148.83,-22.81,-5.02,267.33,0.01,-0.07,0.47,88.56,95.85,88.56,0,0
15/11/2018 12:43:00,90.46,-5.839463,-35.201358,112.50,0.00,-81.00,42.00,310.33,3.76,-54.67,1.96,2.68,-37.31,32.70,1003.38,149.08,-23.83,10.04,262.18,0.01,-0.01,0.37,98.73,76.35,98.73,0,0
15/11/2018 12:43:02,90.81,-5.839455,-35.201370,67.50,0.00,-84.00,43.00,310.33,3.76,-62.34,-1.09,0.05,-29.93,32.70,1003.44,148.33,-6.59,-24.09,264.24,0.02,0.01,0.38,105.51,63.07,105.51,0,0
15/11/2018 12:43:02,91.16,-5.839455,-35.201370,67.50,0.00,-81.00,43.00,310.33,3.76,-69.71,-4.62,-1.06,-23.18,32.70,1003.50,148.58,-31.94,4.02,265.27,-0.03,0.03,0.36,113.14,46.06,113.14,0,0
15/11/2018 12:43:02,91.49,-5.839455,-35.201370,67.50,0.00,-84.00,43.00,310.33,3.76,-76.43,-0.51,1.97,-12.98,32.80,1003.53,148.83,-2.53,-2.01,250.85,-0.03,-0.00,0.31,113.98,28.22,113.98,0,0
15/11/2018 12:43:02,91.84,-5.839455,-35.201370,67.50,0.00,-84.00,44.00,310.33,3.76,-83.15,-3.49,-1.05,-6.51,32.80,1003.47,148.83,6.59,-26.10,256.00,-0.05,-0.07,0.27,118.22,13.28,118.22,0,0
15/11/2018 12:43:03,92.22,-5.839452,-35.201381,67.50,0.00,-84.00,44.00,287.20,3.11,-89.95,0.89,1.37,-0.95,32.80,1003.44,148.83,-24.84,11.04,266.30,-0.02,-0.02,0.24,114.83,-1.24,114.83,0,0
15/11/2018 12:43:04,92.56,-5.839450,-35.201389,45.00,0.00,-84.00,44.00,287.20,3.11,-96.90,-4.55,-0.44,8.87,32.90,1003.47,148.33,-26.87,5.02,263.21,-0.01,0.06,0.30,109.75,-15.77,109.75,0,0
15/11/2018 12:43:04,92.91,-5.839450,-35.201389,45.00,0.00,-86.00,44.00,287.20,3.11,-104.71,2.29,3.23,16.26,32.90,1003.44,148.58,-24.84,9.04,260.12,-0.04,-0.03,0.30,107.20,-30.71,107.20,0,0
15/11/2018 12:43:04,93.27,-5.839450,-35.201389,67.50,0.00,-86.00,41.00,287.20,3.11,-112.60,-2.08,1.21,23.18,33.00,1003.62,148.58,-25.85,6.02,259.09,-0.00,-0.02,0.29,100.85,-42.74,100.85,0,0
15/11/2018 12:43:05,93.62,-5.839453,-35.201396,67.50,0.00,-86.00,40.00,287.20,3.11,-120.03,-3.28,-0.58,30.67,33.00,1003.47,148.58,-19.77,-10.04,265.27,-0.03,-0.06,0.29,92.37,-54.77,92.37,0,0
15/11/2018 12:43:05,93.97,-5.839453,-35.201396,67.50,0.00,-86.00,40.00,287.20,3.11,-126.92,1.45,3.37,36.18,33.00,1003.44,147.57,-25.85,1.00,269.39,-0.01,0.00,0.29,86.44,-65.15,86.44,0,0
15/11/2018 12:43:06,94.30,-5.839455,-35.201400,0.00,0.00,-86.00,40.00,287.20,3.11,-132.77,0.51,-0.35,43.52,33.00,1003.50,149.08,-18.76,-1.00,260.12,-0.04,-0.09,0.25,75.85,-73.44,75.85,0,0
15/11/2018 12:43:06,94.65,-5.839455,-35.201400,0.00,0.00,-86.00,40.00,287.20,3.11,-139.35,-3.45,-0.79,49.94,33.00,1003.44,147.82,-22.81,1.00,261.15,-0.01,0.02,0.28,66.10,-80.08,66.10,0,0
15/11/2018 12:43:06,94.99,-5.839455,-35.201400,0.00,0.00,-68.00,37.00,287.20,3.11,-145.40,1.82,4.65,56.30,33.00,1003.41,148.33,-2.53,-10.04,256.00,0.02,0.15,0.13,55.93,-85.48,55.93,0,0
15/11/2018 12:43:07,95.34,-5.839462,-35.201404,0.00,0.00,4.00,40.00,287.20,3.11,-139.45,-2.20,-0.07,53.08,33.10,1003.47,147.82,-19.77,1.00,268.36,0.07,-0.12,-0.42,60.59,-81.74,60.59,0,0
15/11/2018 12:43:07,95.69,-5.839462,-35.201404,0.00,0.00,2.00,41.00,287.20,3.11,-127.85,-3.81,-3.25,40.99,33.10,1003.38,148.58,5.58,-9.04,268.36,0.03,0.03,-0.59,79.66,-70.54,79.66,0,0
15/11/2018 12:43:08,96.04,-5.839468,-35.201404,67.50,0.00,-32.00,40.00,287.20,3.11,-119.15,3.99,-3.32,29.22,33.10,1003.50,147.57,11.66,-13.05,265.27,0.31,-0.23,-0.29,95.76,-53.53,95.76,0,0
15/11/2018 12:43:08,96.39,-5.839468,-35.201404,45.00,0.00,-57.00,40.00,192.55,3.52,-120.11,-3.47,-1.40,29.31,33.10,1003.56,148.33,-12.67,0.00,265.27,0.01,0.36,-0.00,94.07,-54.36,94.07,0,0
15/11/2018 12:43:08,96.73,-5.839468,-35.201404,0.00,0.00,-88.00,37.00,192.55,3.52,-111.69,-4.39,-3.61,23.52,33.10,1003.50,148.08,8.62,-16.06,256.00,0.00,-0.03,-0.50,101.27,-43.98,101.27,0,0
15/11/2018 12:43:09,97.07,-5.839475,-35.201408,0.00,0.00,-86.00,40.00,192.55,3.52,-100.30,-1.42,-1.01,10.79,33.20,1003.47,148.33,5.58,-16.06,268.36,0.01,-0.08,-0.54,109.75,-21.99,109.75,0,0
15/11/2018 12:43:09,97.42,-5.839475,-35.201408,67.50,0.00,2.00,40.00,192.55,3.52,-94.98,-1.75,-4.00,3.33,33.20,1003.56,148.83,12.67,-11.04,258.06,0.04,0.13,-0.12,113.56,-7.88,113.56,0,0
15/11/2018 12:43:10,97.77,-5.839480,-35.201408,45.00,0.00,2.00,40.00,192.55,3.52,-94.06,-3.24,-4.61,2.92,33.20,1003.53,147.57,10.65,-28.11,262.18,0.06,-0.00,-0.04,112.71,-7.05,112.71,0,0
15/11/2018 12:43:10,98.10,-5.839480,-35.201408,67.50,0.00,4.00,40.00,215.43,3.22,-92.13,-0.90,-0.59,0.95,33.20,1003.59,148.33,1.52,-15.06,261.15,0.06,-0.01,-0.09,113.98,-5.39,113.98,0,0
15/11/2018 12:43:10,98.45,-5.839480,-35.201408,67.50,0.00,2.00,40.00,215.43,3.22,-89.99,-4.79,-3.80,-0.57,33.20,1003.56,147.82,10.65,-21.08,270.42,0.02,0.03,-0.07,115.25,-0.83,115.25,0,0
15/11/2018 12:43:11,98.80,-5.839485,-35.201416,67.50,0.00,54.00,37.00,215.43,3.22,-85.08,-0.35,-1.42,-4.75,33.20,1003.50,148.83,-6.59,-11.04,267.33,-0.01,-0.11,-0.26,116.10,7.05,116.10,0,0
15/11/2018 12:43:11,99.15,-5.839485,-35.201416,67.50,0.00,90.00,41.00,215.43,3.22,-78.05,-3.21,-2.36,-10.27,33.20,1003.53,148.58,-3.55,-4.02,264.24,0.00,0.06,-0.34,114.41,19.92,114.41,0,0
15/11/2018 12:43:11,99.50,-5.839485,-35.201416,67.50,0.00,90.00,40.00,215.43,3.22,-70.85,-0.38,-3.05,-17.50,33.20,1003.53,148.08,-4.56,6.02,263.21,0.02,-0.08,-0.35,114.83,36.10,114.83,0,0
15/11/2018 12:43:12,99.84,-5.839488,-35.201419,0.00,0.00,90.00,41.00,238.60,3.13,-64.24,-3.81,-4.26,-24.13,33.20,1003.47,148.08,16.73,-18.07,262.18,0.03,0.02,-0.33,110.59,50.62,110.59,0,0
15/11/2018 12:43:12,100.18,-5.839488,-35.201419,0.00,0.00,90.00,40.00,238.60,3.13,-57.60,-1.87,-4.40,-31.99,33.20,1003.44,149.75,10.65,-21.08,263.21,0.03,0.10,-0.31,107.20,63.90,107.20,0,0
15/11/2018 12:43:13,100.53,-5.839487,-35.201423,0.00,0.00,90.00,34.00,238.60,3.13,-50.19,-3.18,-7.10,-38.83,33.30,1003.50,148.33,12.67,-15.06,259.09,0.03,-0.08,-0.36,101.27,78.84,101.27,0,0
15/11/2018 12:43:13,100.87,-5.839487,-35.201423,45.00,0.00,90.00,35.00,238.60,3.13,-43.12,-3.25,-4.38,-45.27,33.30,1003.47,149.08,4.56,-10.04,266.30,0.01,0.05,-0.32,91.10,89.21,91.10,0,0
15/11/2018 12:43:14,101.22,-5.839485,-35.201423,90.00,0.00,90.00,34.00,238.60,3.13,-37.26,-3.36,-4.96,-51.44,33.30,1003.53,148.33,7.60,-15.06,265.27,-0.01,0.03,-0.30,80.08,99.17,80.08,0,0
15/11/2018 12:43:14,101.56,-5.839485,-35.201423,90.00,0.00,90.00,35.00,294.88,2.26,-30.55,-2.96,-4.98,-57.42,33.30,1003.44,148.58,-7.60,-5.02,271.45,0.06,-0.03,-0.35,71.19,108.71,71.19,0,0
15/11/2018 12:43:14,101.91,-5.839485,-35.201423,45.00,0.00,90.00,37.00,294.88,2.26,-24.02,-0.16,-0.40,-61.63,33.30,1003.53,148.08,11.66,-14.05,269.39,0.02,0.02,-0.33,62.29,115.77,62.29,0,0
15/11/2018 12:43:15,102.25,-5.839480,-35.201427,0.00,0.00,90.00,36.00,294.88,2.26,-19.51,-2.22,-3.76,-68.06,33.30,1003.44,148.83,-9.63,-2.01,268.36,0.01,-0.01,-0.28,50.85,122.82,50.85,0,0
15/11/2018 12:43:15,102.59,-5.839480,-35.201427,0.00,0.00,90.00,37.00,294.88,2.26,-13.74,-0.72,-1.62,-72.45,33.30,1003.50,148.33,18.76,-17.07,261.15,0.03,0.04,-0.34,38.14,124.90,38.14,0,0
15/11/2018 12:43:15,102.94,-5.839480,-35.201427,45.00,0.00,90.00,36.00,294.88,2.26,-6.89,-3.68,-6.02,-80.32,33.30,1003.53,149.08,-4.56,0.00,267.33,0.00,0.00,-0.38,24.15,129.88,24.15,0,0
15/11/2018 12:43:15,103.29,-5.839480,-35.201427,90.00,0.00,90.00,37.00,294.88,2.26,-0.48,-1.31,-3.87,-85.76,33.40,1003.41,149.08,-0.51,-7.03,270.42,0.04,0.06,-0.34,8.90,129.88,8.90,0,0
15/11/2018 12:43:15,103.62,-5.839480,-35.201427,90.00,0.00,90.00,37.00,294.88,2.26,5.11,-3.21,-5.82,-91.64,33.40,1003.44,148.83,3.55,-13.05,263.21,-0.02,-0.02,-0.33,-3.81,128.63,-3.81,0,0
15/11/2018 12:43:17,103.97,-5.839462,-35.201423,45.00,0.00,90.00,37.00,294.88,2.26,10.70,-3.37,-4.87,-96.83,33.40,1003.50,148.58,-3.55,-10.04,268.36,0.03,-0.03,-0.32,-15.25,124.90,-15.25,0,0
15/11/2018 12:43:17,104.32,-5.839462,-35.201423,45.00,0.00,90.00,37.00,294.88,2.26,16.72,-1.86,-2.52,-102.74,33.40,1003.41,149.33,-6.59,2.01,269.39,-0.01,0.03,-0.34,-27.12,118.26,-27.12,0,0
15/11/2018 12:43:17,104.67,-5.839462,-35.201423,45.00,0.00,90.00,80.00,294.88,2.26,22.36,0.39,-2.18,-109.65,33.40,1003.60,147.49,5.58,2.01,267.33,0.02,0.08,-0.32,-39.83,110.79,-39.83,0,0
15/11/2018 12:43:17,105.02,-5.839462,-35.201423,90.00,0.00,90.00,82.00,294.88,2.26,28.09,1.80,-1.65,-116.25,33.40,1003.63,147.82,2.53,6.02,258.06,0.07,0.06,-0.32,-49.58,102.07,-49.58,0,0
15/11/2018 12:43:17,105.36,-5.839462,-35.201423,90.00,0.00,90.00,81.00,294.88,2.26,35.18,1.34,-3.24,-124.05,33.40,1003.53,146.98,0.51,2.01,262.18,0.02,-0.03,-0.36,-61.44,92.53,-61.44,0,0
15/11/2018 12:43:19,105.71,-5.839445,-35.201427,135.00,0.00,90.00,83.00,294.88,2.26,41.91,0.11,-4.23,-129.32,33.30,1003.56,147.49,2.53,4.02,274.54,0.05,-0.07,-0.36,-67.80,82.57,-67.80,0,0
15/11/2018 12:43:19,106.05,-5.839445,-35.201427,135.00,0.00,90.00,82.00,294.88,2.26,48.10,3.34,-1.32,-138.30,33.40,1003.60,148.58,2.53,-1.00,260.12,0.05,0.09,-0.31,-75.42,67.63,-75.42,0,0
15/11/2018 12:43:19,106.39,-5.839445,-35.201427,135.00,0.00,90.00,81.00,294.88,2.26,55.45,3.12,-2.21,-144.88,33.40,1003.56,148.08,4.56,-2.01,278.66,0.08,0.01,-0.33,-78.39,55.19,-78.39,0,0
15/11/2018 12:43:20,106.74,-5.839438,-35.201423,135.00,0.00,90.00,82.00,12.30,2.87,62.58,-0.71,-2.86,-153.60,33.40,1003.60,148.08,-0.51,14.05,247.76,-0.04,0.01,-0.32,-79.66,39.42,-79.66,0,0
15/11/2018 12:43:20,107.08,-5.839438,-35.201423,90.00,0.00,90.00,81.00,12.30,2.87,70.23,1.90,-4.28,-161.36,33.40,1003.44,148.83,-1.52,21.08,258.06,-0.02,-0.14,-0.34,-78.81,28.22,-78.81,0,0
15/11/2018 12:43:21,107.42,-5.839430,-35.201419,0.00,0.00,90.00,80.00,12.30,2.87,77.57,1.12,-4.74,-170.72,33.40,1003.57,148.58,5.58,-2.01,253.94,0.06,-0.02,-0.28,-80.51,14.52,-80.51,0,0
15/11/2018 12:43:21,107.77,-5.839430,-35.201419,0.00,0.00,90.00,54.00,7.83,3.91,84.67,1.88,-1.65,-179.05,33.40,1003.47,148.08,-11.66,-12.05,259.09,-0.06,0.05,-0.24,-79.66,1.24,-79.66,0,0
15/11/2018 12:43:21,108.12,-5.839430,-35.201419,90.00,0.00,90.00,51.00,7.83,3.91,90.87,-1.99,1.18,175.25,33.50,1003.54,147.99,-5.58,2.01,264.24,-0.15,-0.09,-0.22,-76.69,-7.05,-76.69,0,0
15/11/2018 12:43:22,108.47,-5.839422,-35.201412,112.50,0.00,90.00,52.00,40.57,2.32,97.10,-0.58,0.70,167.17,33.50,1003.60,147.99,11.66,-11.04,254.97,-0.15,-0.03,-0.19,-74.58,-16.60,-74.58,0,0
15/11/2018 12:43:23,108.82,-5.839418,-35.201408,45.00,0.00,90.00,52.00,40.57,2.32,103.69,-3.02,-5.33,161.35,33.50,1003.60,147.49,-13.69,7.03,256.00,-0.05,0.08,-0.15,-69.92,-24.48,-69.92,0,0
15/11/2018 12:43:23,109.16,-5.839418,-35.201408,112.50,0.00,90.00,51.00,40.57,2.32,108.84,0.87,-1.18,155.17,33.50,1003.50,147.99,10.65,-12.05,254.97,0.06,-0.08,-0.15,-66.95,-29.46,-66.95,0,0
15/11/2018 12:43:23,109.50,-5.839418,-35.201408,45.00,0.00,51.00,51.00,40.57,2.32,113.39,0.74,-1.50,153.97,33.50,1003.47,147.74,20.78,-9.04,253.94,-0.04,-0.06,-0.09,-65.68,-33.61,-65.68,0,0
15/11/2018 12:43:23,109.85,-5.839418,-35.201408,45.00,0.00,0.00,50.00,40.57,2.32,113.88,-0.80,-1.52,153.64,33.60,1003.54,147.99,20.78,-12.05,263.21,-0.01,0.05,0.07,-63.98,-33.61,-63.98,0,0
15/11/2018 12:43:24,110.19,-5.839418,-35.201404,45.00,0.00,47.00,51.00,82.86,3.59,118.96,-0.71,-0.58,150.93,33.60,1003.57,147.74,7.60,-23.09,266.30,0.01,-0.05,-0.32,-64.83,-37.34,-64.83,0,0
15/11/2018 12:43:25,110.53,-5.839417,-35.201400,45.00,0.00,90.00,52.00,82.86,3.59,128.89,-1.57,-2.97,138.13,33.60,1003.57,147.74,7.60,3.01,256.00,-0.00,0.00,-0.41,-54.66,-51.87,-54.66,0,0
15/11/2018 12:43:25,110.88,-5.839417,-35.201400,45.00,0.00,90.00,51.00,82.86,3.59,139.63,1.79,-2.32,125.49,33.60,1003.47,149.08,11.66,-9.04,268.36,0.04,0.03,-0.39,-45.76,-64.32,-45.76,0,0
15/11/2018 12:43:25,111.22,-5.839417,-35.201400,45.00,0.00,90.00,52.00,82.86,3.59,151.51,-1.86,-3.75,113.50,33.60,1003.41,149.33,27.88,-12.05,249.82,-0.04,-0.00,-0.40,-31.36,-75.52,-31.36,0,0
15/11/2018 12:43:25,111.56,-5.839417,-35.201400,45.00,0.00,90.00,51.00,82.86,3.59,162.61,1.39,-3.25,103.13,33.60,1003.41,149.08,22.81,-18.07,258.06,0.03,0.05,-0.37,-16.95,-83.82,-16.95,0,0
15/11/2018 12:43:25,111.90,-5.839417,-35.201400,0.00,0.00,90.00,50.00,82.86,3.59,172.91,-0.19,-3.35,94.08,33.60,1003.38,148.83,6.59,1.00,257.03,0.02,0.00,-0.39,-3.81,-89.63,-3.81,0,0
15/11/2018 12:43:27,112.25,-5.839422,-35.201389,0.00,0.00,90.00,50.00,82.86,3.59,-174.96,-0.78,-5.67,81.54,33.70,1003.57,149.08,17.74,-18.07,264.24,0.00,-0.06,-0.49,13.98,-91.29,13.98,0,0
15/11/2018 12:43:27,112.60,-5.839422,-35.201389,45.00,0.00,0.00,1.00,82.86,3.59,-171.09,-0.65,-3.75,77.37,33.70,1003.54,148.49,16.73,-6.02,269.39,0.07,0.18,0.02,23.31,-93.36,23.31,0,0
