Date,TimeStamp,Latitude,Longitude,Wind Direction,Wind Speed,Rudder Angle,Sail Angle,GPS Course,GPS Speed,Yaw,Pitch,Roll,Magnetometer Heading,OD,POR,Ph,EC,TDS,S,Water Temperature
12/05/2018 16:54:13,0.00,-5.765115,-35.204151,ovf,166.67,90.00,57.00,102.27,0.39,164.05,2.85,0.11,58.58, 
00/00/2000 16:54:15,0.20,-5.765113,-35.204151,ovf,166.67,90.00,100.00,1000.00,-1.00,164.10,2.84,0.07,59.09, 
12/05/2018 16:54:15,0.40,-5.765113,-35.204151,ovf,166.67,90.00,100.00,236.88,0.06,164.13,2.90,0.03,59.08, 
12/05/2018 16:54:15,0.60,-5.765113,-35.204151,ovf,166.67,90.00,100.00,236.88,0.06,164.12,2.86,0.05,59.13, 
12/05/2018 16:54:15,0.80,-5.765113,-35.204151,ovf,166.67,90.00,100.00,236.88,0.06,164.12,2.82,0.06,58.96, 
12/05/2018 16:54:16,1.00,-5.765113,-35.204151,ovf,166.67,90.00,100.00,236.88,0.06,164.17,2.85,0.04,58.79, 
12/05/2018 16:54:16,1.20,-5.765113,-35.204151,ovf,166.67,90.00,100.00,32.03,0.33,164.19,2.82,0.04,58.69, 
12/05/2018 16:54:16,1.40,-5.765113,-35.204151,ovf,166.67,90.00,100.00,32.03,0.33,164.12,2.83,0.06,58.74, 
12/05/2018 16:54:16,1.60,-5.765113,-35.204151,ovf,166.67,90.00,100.00,32.03,0.33,164.09,2.84,0.05,58.97, 
12/05/2018 16:54:17,1.80,-5.765113,-35.204151,ovf,166.67,90.00,100.00,32.03,0.33,164.08,2.85,0.05,59.48, 
12/05/2018 16:54:17,2.00,-5.765113,-35.204151,ovf,166.67,90.00,100.00,61.92,0.52,164.04,2.83,0.01,59.51, 
12/05/2018 16:54:17,2.20,-5.765113,-35.204151,ovf,166.67,90.00,100.00,61.92,0.52,164.12,2.86,-0.01,59.02, 
12/05/2018 16:54:17,2.40,-5.765113,-35.204151,ovf,166.67,90.00,100.00,61.92,0.52,164.06,2.88,0.05,59.85, 
12/05/2018 16:54:18,2.60,-5.765113,-35.204151,ovf,166.67,90.00,100.00,61.92,0.52,164.13,2.89,0.08,58.88, 
12/05/2018 16:54:18,2.80,-5.765113,-35.204151,ovf,166.67,90.00,100.00,61.92,0.52,164.10,2.88,0.09,58.81, 
12/05/2018 16:54:18,3.00,-5.765113,-35.204151,ovf,166.67,90.00,100.00,359.79,0.19,164.12,2.83,0.08,58.64, 
12/05/2018 16:54:18,3.20,-5.765113,-35.204151,ovf,166.67,90.00,100.00,359.79,0.19,164.10,2.84,0.08,58.74, 
12/05/2018 16:54:18,3.40,-5.765113,-35.204151,ovf,166.67,90.00,100.00,359.79,0.19,164.07,2.86,0.07,58.40, 
12/05/2018 16:54:19,3.60,-5.765112,-35.204151,ovf,166.67,90.00,100.00,359.79,0.19,164.08,2.84,0.11,58.80, 
12/05/2018 16:54:19,3.80,-5.765112,-35.204151,ovf,166.67,90.00,100.00,359.79,0.19,164.04,2.87,0.04,58.52, 
12/05/2018 16:54:19,4.00,-5.765112,-35.204151,ovf,166.67,90.00,100.00,359.79,0.19,164.03,2.85,0.05,59.23, 
12/05/2018 16:54:19,4.20,-5.765112,-35.204151,ovf,166.67,90.00,100.00,337.09,0.33,164.03,2.86,0.09,59.56, 
12/05/2018 16:54:20,4.40,-5.765112,-35.204151,ovf,166.67,90.00,100.00,337.09,0.33,164.04,2.89,0.06,58.50, 
12/05/2018 16:54:20,4.60,-5.765112,-35.204151,ovf,166.67,90.00,100.00,30.61,0.11,164.05,2.72,0.14,59.04, 
12/05/2018 16:54:20,4.80,-5.765112,-35.204151,ovf,166.67,90.00,100.00,30.61,0.11,164.05,3.02,-0.01,59.38, 
12/05/2018 16:54:20,5.00,-5.765112,-35.204151,ovf,166.67,90.00,100.00,30.61,0.11,164.16,2.93,0.05,59.33, 
12/05/2018 16:54:20,5.20,-5.765112,-35.204151,ovf,166.67,90.00,100.00,30.61,0.11,164.17,2.78,0.06,58.50, 
12/05/2018 16:54:21,5.40,-5.765113,-35.204151,ovf,166.67,90.00,100.00,30.61,0.11,164.14,2.91,-0.03,59.25, 
12/05/2018 16:54:21,5.60,-5.765113,-35.204151,ovf,166.67,90.00,100.00,121.45,0.19,164.14,2.90,-0.15,59.45, 
12/05/2018 16:54:21,5.80,-5.765113,-35.204151,ovf,166.67,90.00,100.00,121.45,0.19,164.12,2.72,-0.08,59.23, 
12/05/2018 16:54:21,6.00,-5.765113,-35.204151,ovf,166.67,90.00,100.00,121.45,0.19,164.12,2.79,0.01,58.92, 
12/05/2018 16:54:22,6.20,-5.765113,-35.204154,ovf,166.67,90.00,100.00,121.45,0.19,164.14,3.03,0.01,60.24, 
12/05/2018 16:54:22,6.40,-5.765113,-35.204154,ovf,166.67,90.00,100.00,283.85,0.31,164.22,2.90,0.06,59.01, 
12/05/2018 16:54:22,6.60,-5.765113,-35.204154,ovf,166.67,90.00,100.00,283.85,0.31,164.23,2.83,0.10,58.54, 
12/05/2018 16:54:22,6.80,-5.765113,-35.204154,ovf,166.67,90.00,100.00,283.85,0.31,164.21,2.96,0.06,59.51, 
12/05/2018 16:54:23,7.00,-5.765112,-35.204154,ovf,166.67,90.00,100.00,283.85,0.31,164.18,2.90,0.07,59.64, 
12/05/2018 16:54:23,7.20,-5.765112,-35.204154,ovf,166.67,90.00,100.00,283.85,0.31,164.17,2.93,-0.00,58.94, 
12/05/2018 16:54:23,7.40,-5.765112,-35.204154,ovf,166.67,90.00,100.00,182.56,0.44,164.09,2.94,0.02,58.39, 
12/05/2018 16:54:23,7.60,-5.765112,-35.204154,ovf,166.67,90.00,100.00,182.56,0.44,164.05,2.86,0.10,58.85, 6.05,445.6,0.000,0.00,0,0¿ﬂÒo¿S§
12/05/2018 16:54:24,7.80,-5.765112,-35.204154,ovf,166.67,90.00,100.00,182.56,0.44,163.99,2.76,0.06,58.81, 
12/05/2018 16:54:24,8.00,-5.765112,-35.204154,ovf,166.67,90.00,100.00,182.56,0.44,163.98,2.89,-0.18,58.70, 
12/05/2018 16:54:24,8.20,-5.765112,-35.204154,ovf,166.67,90.00,100.00,182.56,0.44,165.07,3.07,-2.09,61.73, 
12/05/2018 16:54:24,8.40,-5.765112,-35.204154,ovf,166.67,90.00,100.00,182.56,0.44,167.66,3.01,-2.48,62.73, 
12/05/2018 16:54:24,8.60,-5.765112,-35.204154,ovf,166.67,90.00,100.00,358.89,0.20,168.89,2.19,-1.60,63.15, 
12/05/2018 16:54:25,8.80,-5.765112,-35.204158,ovf,166.67,90.00,100.00,358.89,0.20,169.18,2.38,0.16,62.08, 
12/05/2018 16:54:25,9.00,-5.765112,-35.204158,ovf,166.67,90.00,100.00,8.58,0.41,168.81,3.18,1.08,62.21, 
12/05/2018 16:54:25,9.20,-5.765112,-35.204158,ovf,166.67,90.00,100.00,8.58,0.41,167.61,3.36,3.32,59.34, 
12/05/2018 16:54:25,9.40,-5.765112,-35.204158,ovf,166.67,90.00,100.00,8.58,0.41,167.14,3.00,0.81,61.48, 
12/05/2018 16:54:26,9.60,-5.765112,-35.204158,ovf,166.67,90.00,100.00,8.58,0.41,167.15,2.93,0.25,62.20, 
12/05/2018 16:54:26,9.80,-5.765112,-35.204158,ovf,166.67,90.00,100.00,85.01,1.48,167.24,2.84,-0.02,62.53, 
12/05/2018 16:54:26,10.00,-5.765112,-35.204158,ovf,166.67,90.00,100.00,85.01,1.48,167.37,2.75,0.17,62.47, 
12/05/2018 16:54:26,10.20,-5.765112,-35.204158,ovf,166.67,90.00,100.00,85.01,1.48,167.45,3.09,-0.27,63.40, 
12/05/2018 16:54:26,10.40,-5.765112,-35.204158,ovf,166.67,90.00,100.00,85.01,1.48,167.58,2.84,0.03,62.22, 
12/05/2018 16:54:27,10.60,-5.765112,-35.204158,ovf,166.67,90.00,100.00,85.01,1.48,167.66,2.92,-0.19,62.81, 
12/05/2018 16:54:27,10.80,-5.765112,-35.204158,ovf,166.67,90.00,100.00,63.31,0.65,167.64,2.92,0.02,62.87, 
12/05/2018 16:54:27,11.00,-5.765112,-35.204158,ovf,166.67,90.00,100.00,63.31,0.65,167.55,2.89,0.14,62.81, 
12/05/2018 16:54:27,11.20,-5.765112,-35.204158,ovf,166.67,90.00,100.00,63.31,0.65,167.50,2.84,0.06,62.66, 
12/05/2018 16:54:28,11.40,-5.765113,-35.204154,ovf,166.67,90.00,100.00,63.31,0.65,167.52,2.98,0.23,62.63, 
12/05/2018 16:54:28,11.60,-5.765113,-35.204154,ovf,166.67,90.00,100.00,70.17,0.56,166.44,1.78,0.30,59.20, 
12/05/2018 16:54:28,11.80,-5.765113,-35.204154,ovf,166.67,90.00,100.00,70.17,0.56,166.01,2.20,0.85,60.59, 
12/05/2018 16:54:28,12.00,-5.765113,-35.204154,ovf,166.67,90.00,100.00,70.17,0.56,165.87,2.55,0.37,60.11, 
12/05/2018 16:54:29,12.20,-5.765113,-35.204154,ovf,166.67,90.00,100.00,70.17,0.56,165.91,2.73,-0.06,61.20, 
12/05/2018 16:54:29,12.40,-5.765113,-35.204154,ovf,166.67,90.00,100.00,70.17,0.56,166.03,2.78,0.09,60.82, 
12/05/2018 16:54:29,12.60,-5.765113,-35.204154,ovf,166.67,90.00,100.00,70.17,0.56,166.11,2.73,-0.09,61.33, 
12/05/2018 16:54:29,12.80,-5.765113,-35.204154,ovf,166.67,90.00,100.00,70.17,0.56,166.20,2.76,-0.18,61.67, 
12/05/2018 16:54:29,13.00,-5.765113,-35.204154,ovf,166.67,90.00,100.00,357.16,0.06,166.24,2.81,-0.06,61.14, 
12/05/2018 16:54:30,13.20,-5.765115,-35.204158,ovf,166.67,90.00,100.00,357.16,0.06,166.31,2.83,-0.12,60.99, 
12/05/2018 16:54:30,13.40,-5.765115,-35.204158,ovf,166.67,90.00,100.00,206.90,0.44,166.37,2.93,-0.38,62.24, 
12/05/2018 16:54:30,13.60,-5.765115,-35.204158,ovf,166.67,90.00,100.00,206.90,0.44,166.46,2.80,-0.28,61.46, 
12/05/2018 16:54:30,13.80,-5.765115,-35.204158,ovf,166.67,90.00,100.00,206.90,0.44,166.42,2.74,-0.12,61.78, 
12/05/2018 16:54:31,14.00,-5.765117,-35.204158,ovf,166.67,90.00,100.00,206.90,0.44,165.67,2.80,-0.31,60.42, 
12/05/2018 16:54:31,14.20,-5.765117,-35.204158,ovf,166.67,90.00,100.00,95.18,0.26,165.70,2.76,-0.25,61.16, 
12/05/2018 16:54:31,14.40,-5.765117,-35.204158,ovf,166.67,90.00,100.00,95.18,0.26,165.78,2.74,-0.07,60.59, 
12/05/2018 16:54:31,14.60,-5.765117,-35.204158,ovf,166.67,90.00,100.00,95.18,0.26,165.79,2.64,-0.07,60.39, 
12/05/2018 16:54:32,14.80,-5.765117,-35.204158,ovf,166.67,90.00,100.00,95.18,0.26,165.75,2.84,-0.11,60.30, 
12/05/2018 16:54:32,15.00,-5.765117,-35.204158,ovf,166.67,90.00,100.00,95.18,0.26,165.75,2.70,0.04,60.11, 
12/05/2018 16:54:32,15.20,-5.765117,-35.204158,ovf,166.67,90.00,100.00,11.55,0.48,165.75,2.67,-0.16,61.12, 
12/05/2018 16:54:32,15.40,-5.765117,-35.204158,ovf,166.67,90.00,100.00,11.55,0.48,165.74,2.80,-0.04,59.94, 
12/05/2018 16:54:33,15.60,-5.765113,-35.204158,ovf,166.67,90.00,100.00,11.55,0.48,165.73,3.04,0.46,60.66, 
12/05/2018 16:54:33,15.80,-5.765113,-35.204158,ovf,166.67,90.00,100.00,11.55,0.48,165.76,2.76,0.02,60.89, 
12/05/2018 16:54:33,16.00,-5.765113,-35.204158,ovf,166.67,90.00,100.00,4.57,0.65,165.81,2.91,-0.14,60.64, 
12/05/2018 16:54:33,16.20,-5.765113,-35.204158,ovf,166.67,90.00,100.00,4.57,0.65,165.91,2.90,0.12,60.67, 
12/05/2018 16:54:34,16.40,-5.765112,-35.204158,ovf,166.67,90.00,100.00,4.57,0.65,165.91,2.70,0.07,61.62, 
12/05/2018 16:54:34,16.60,-5.765112,-35.204158,ovf,166.67,90.00,100.00,4.57,0.65,165.80,2.59,-0.02,60.24, 
12/05/2018 16:54:34,16.80,-5.765112,-35.204158,ovf,166.67,90.00,100.00,4.57,0.65,165.81,2.72,-0.11,60.96, 
12/05/2018 16:54:34,17.00,-5.765112,-35.204158,ovf,166.67,90.00,100.00,4.57,0.65,165.85,2.79,-0.12,60.72, 
12/05/2018 16:54:34,17.20,-5.765112,-35.204158,ovf,166.67,90.00,100.00,10.70,1.07,165.83,2.72,-0.14,60.22, 
12/05/2018 16:54:35,17.40,-5.765108,-35.204154,ovf,166.67,90.00,100.00,10.70,1.07,165.89,2.74,-0.19,60.91, 
12/05/2018 16:54:35,17.60,-5.765108,-35.204154,ovf,166.67,90.00,100.00,42.61,0.76,165.91,2.78,-0.13,61.57, 
12/05/2018 16:54:35,17.80,-5.765108,-35.204154,ovf,166.67,90.00,100.00,42.61,0.76,165.92,2.70,-0.13,60.44, 
12/05/2018 16:54:35,18.00,-5.765108,-35.204154,ovf,166.67,90.00,100.00,42.61,0.76,165.88,2.74,-0.14,61.10, 
12/05/2018 16:54:36,18.20,-5.765108,-35.204154,ovf,166.67,90.00,100.00,42.61,0.76,165.91,2.77,0.04,61.29, 
12/05/2018 16:54:36,18.40,-5.765108,-35.204154,ovf,166.67,90.00,100.00,142.88,0.43,165.95,2.77,-0.08,60.63, 6.04,455.6,0.000,0.00,0,0¿ﬂÒo¿S§
12/05/2018 16:54:36,18.60,-5.765108,-35.204154,ovf,166.67,90.00,100.00,142.88,0.43,165.94,2.67,-0.05,60.65, 
12/05/2018 16:54:36,18.80,-5.765108,-35.204154,ovf,166.67,90.00,100.00,142.88,0.43,165.91,2.73,0.22,59.60, 
12/05/2018 16:54:37,19.00,-5.765110,-35.204154,ovf,166.67,90.00,100.00,142.88,0.43,165.83,2.80,0.03,60.70, 
12/05/2018 16:54:37,19.20,-5.765110,-35.204154,ovf,166.67,90.00,100.00,145.51,0.28,165.79,2.74,0.06,60.58, 
12/05/2018 16:54:37,19.40,-5.765110,-35.204154,ovf,166.67,90.00,100.00,145.51,0.28,165.76,2.65,-0.03,61.10, 
12/05/2018 16:54:37,19.60,-5.765110,-35.204154,ovf,166.67,90.00,100.00,145.51,0.28,165.77,2.72,0.05,60.39, 
12/05/2018 16:54:38,19.80,-5.765112,-35.204154,ovf,166.67,90.00,100.00,145.51,0.28,165.75,2.71,-0.10,60.73, 
12/05/2018 16:54:38,20.00,-5.765112,-35.204154,ovf,166.67,90.00,100.00,117.28,0.28,165.85,2.74,-0.01,60.56, 
12/05/2018 16:54:38,20.20,-5.765112,-35.204154,ovf,166.67,90.00,100.00,117.28,0.28,165.86,2.84,0.06,60.47, 
12/05/2018 16:54:38,20.40,-5.765112,-35.204154,ovf,166.67,90.00,100.00,117.28,0.28,165.87,2.69,-0.02,60.31, 
12/05/2018 16:54:39,20.60,-5.765112,-35.204154,ovf,166.67,90.00,100.00,117.28,0.28,165.87,2.82,-0.04,61.21, 
12/05/2018 16:54:39,20.80,-5.765112,-35.204154,ovf,166.67,90.00,100.00,117.28,0.28,165.85,2.67,0.17,60.82, 
12/05/2018 16:54:39,21.00,-5.765112,-35.204154,ovf,166.67,90.00,100.00,117.28,0.28,165.84,2.87,-0.08,61.19, 
12/05/2018 16:54:39,21.20,-5.765112,-35.204154,ovf,166.67,90.00,100.00,147.52,0.17,165.93,2.87,0.04,60.94, 
12/05/2018 16:54:40,21.40,-5.765113,-35.204154,ovf,166.67,90.00,100.00,147.52,0.17,165.95,2.83,-0.02,61.00, 
12/05/2018 16:54:40,21.60,-5.765113,-35.204154,ovf,166.67,90.00,100.00,91.49,0.15,165.86,2.81,-0.00,60.72, 
12/05/2018 16:54:40,21.80,-5.765113,-35.204154,ovf,166.67,90.00,100.00,91.49,0.15,165.87,2.83,-0.01,60.95, 
12/05/2018 16:54:40,22.00,-5.765113,-35.204154,ovf,166.67,90.00,100.00,91.49,0.15,165.92,2.34,-0.29,60.57, 
12/05/2018 16:54:41,22.20,-5.765113,-35.204154,ovf,166.67,90.00,100.00,91.49,0.15,165.84,2.89,-0.03,60.80, 
12/05/2018 16:54:41,22.40,-5.765113,-35.204154,ovf,166.67,90.00,100.00,351.24,0.78,165.88,2.70,-0.12,60.24, 
12/05/2018 16:54:41,22.60,-5.765113,-35.204154,ovf,166.67,90.00,100.00,351.24,0.78,165.91,2.95,-0.07,60.88, 
12/05/2018 16:54:41,22.80,-5.765113,-35.204154,ovf,166.67,90.00,100.00,351.24,0.78,165.88,2.80,0.04,60.60, 
12/05/2018 16:54:42,23.00,-5.765112,-35.204154,ovf,166.67,90.00,100.00,351.24,0.78,165.87,2.65,-0.02,60.13, 
12/05/2018 16:54:42,23.20,-5.765112,-35.204154,ovf,166.67,90.00,100.00,334.92,0.39,165.88,2.92,-0.13,61.43, 
12/05/2018 16:54:42,23.40,-5.765112,-35.204154,ovf,166.67,90.00,100.00,334.92,0.39,165.94,2.80,-0.19,60.71, 
12/05/2018 16:54:42,23.60,-5.765112,-35.204154,ovf,166.67,90.00,100.00,334.92,0.39,165.95,2.91,-0.11,62.13, 
12/05/2018 16:54:43,23.80,-5.765112,-35.204158,ovf,166.67,90.00,100.00,334.92,0.39,166.00,2.81,-0.11,61.13, 
12/05/2018 16:54:43,24.00,-5.765112,-35.204158,ovf,166.67,90.00,100.00,97.33,0.09,166.00,2.80,-0.15,61.42, 
12/05/2018 16:54:43,24.20,-5.765112,-35.204158,ovf,166.67,90.00,100.00,97.33,0.09,165.94,2.66,-0.09,60.07, 
12/05/2018 16:54:43,24.40,-5.765112,-35.204158,ovf,166.67,90.00,100.00,97.33,0.09,165.92,2.77,-0.01,60.70, 
12/05/2018 16:54:44,24.60,-5.765113,-35.204158,ovf,166.67,90.00,100.00,97.33,0.09,165.87,2.92,-0.08,60.50, 
12/05/2018 16:54:44,24.80,-5.765113,-35.204158,ovf,166.67,90.00,100.00,97.33,0.09,165.91,2.80,-0.17,60.56, 
12/05/2018 16:54:44,25.00,-5.765113,-35.204158,ovf,166.67,90.00,100.00,97.33,0.09,165.89,2.89,-0.16,60.78, 
12/05/2018 16:54:44,25.20,-5.765113,-35.204158,ovf,166.67,90.00,100.00,129.52,0.20,165.98,3.09,-0.22,61.02, 
12/05/2018 16:54:45,25.40,-5.765113,-35.204158,ovf,166.67,90.00,100.00,129.52,0.20,166.10,3.25,-0.20,61.69, 
12/05/2018 16:54:45,25.60,-5.765113,-35.204158,ovf,166.67,90.00,100.00,310.79,0.09,166.12,2.81,-0.17,61.24, 
12/05/2018 16:54:45,25.80,-5.765113,-35.204158,ovf,166.67,90.00,100.00,310.79,0.09,166.15,2.83,-0.15,61.68, 
12/05/2018 16:54:45,26.00,-5.765113,-35.204158,ovf,166.67,90.00,100.00,310.79,0.09,166.19,2.89,-0.26,61.46, 
12/05/2018 16:54:46,26.20,-5.765115,-35.204158,ovf,166.67,90.00,100.00,310.79,0.09,166.24,2.77,-0.05,61.42, 
12/05/2018 16:54:46,26.40,-5.765115,-35.204158,ovf,166.67,90.00,100.00,14.35,0.13,166.25,2.80,-0.12,61.21, 
12/05/2018 16:54:46,26.60,-5.765115,-35.204158,ovf,166.67,90.00,100.00,14.35,0.13,166.23,2.74,-0.07,60.91, 
12/05/2018 16:54:46,26.80,-5.765115,-35.204158,ovf,166.67,90.00,100.00,14.35,0.13,166.19,2.92,-0.24,61.91, 
12/05/2018 16:54:47,27.00,-5.765115,-35.204158,ovf,166.67,90.00,100.00,14.35,0.13,166.17,2.86,-0.09,62.07, 
12/05/2018 16:54:47,27.20,-5.765115,-35.204158,ovf,166.67,90.00,100.00,14.35,0.13,166.18,2.65,-0.03,60.99, 
12/05/2018 16:54:47,27.40,-5.765115,-35.204158,ovf,166.67,90.00,100.00,198.46,0.30,166.06,2.75,-0.29,60.17, 
12/05/2018 16:54:47,27.60,-5.765115,-35.204158,ovf,166.67,90.00,100.00,198.46,0.30,166.12,2.75,-0.03,61.16, 
12/05/2018 16:54:48,27.80,-5.765117,-35.204158,ovf,166.67,90.00,100.00,198.46,0.30,166.07,2.81,-0.19,60.80, 
12/05/2018 16:54:48,28.00,-5.765117,-35.204158,ovf,166.67,90.00,100.00,198.46,0.30,166.14,2.71,-0.04,61.00, 
12/05/2018 16:54:48,28.20,-5.765117,-35.204158,ovf,166.67,90.00,100.00,124.50,0.15,166.13,2.69,-0.08,60.25, 
12/05/2018 16:54:48,28.40,-5.765117,-35.204158,ovf,166.67,90.00,100.00,124.50,0.15,166.11,2.81,-0.04,60.55, 
12/05/2018 16:54:49,28.60,-5.765117,-35.204158,ovf,166.67,90.00,100.00,124.50,0.15,166.07,2.54,0.01,60.44, 6.13,462.7,0.000,0.00,0,0¿ﬂÒo¿S§
12/05/2018 16:54:49,28.80,-5.765117,-35.204158,ovf,166.67,90.00,100.00,124.50,0.15,166.05,2.62,0.09,60.63, 
12/05/2018 16:54:49,29.00,-5.765117,-35.204158,ovf,166.67,90.00,100.00,124.50,0.15,165.97,2.73,-0.05,60.86, 
12/05/2018 16:54:49,29.20,-5.765117,-35.204158,ovf,166.67,90.00,100.00,124.50,0.15,165.92,2.72,0.13,60.23, 
12/05/2018 16:54:50,29.40,-5.765117,-35.204158,ovf,166.67,90.00,100.00,8.76,0.37,165.82,2.77,-0.17,60.87, 
12/05/2018 16:54:50,29.60,-5.765117,-35.204158,ovf,166.67,90.00,100.00,8.76,0.37,165.95,2.51,-0.29,61.58, 
12/05/2018 16:54:50,29.80,-5.765117,-35.204158,ovf,166.67,90.00,100.00,55.43,0.11,165.99,2.80,-0.08,61.16, 
12/05/2018 16:54:50,30.00,-5.765117,-35.204158,ovf,166.67,90.00,100.00,55.43,0.11,166.07,2.77,-0.15,60.62, 
12/05/2018 16:54:50,30.20,-5.765117,-35.204158,ovf,166.67,90.00,100.00,55.43,0.11,166.09,2.86,-0.16,60.87, 
12/05/2018 16:54:51,30.40,-5.765117,-35.204158,ovf,166.67,90.00,100.00,55.43,0.11,166.13,2.81,-0.10,61.18, 
12/05/2018 16:54:51,30.60,-5.765117,-35.204158,ovf,166.67,90.00,100.00,86.46,0.22,166.13,2.84,-0.09,59.81, 
12/05/2018 16:54:51,30.80,-5.765117,-35.204158,ovf,166.67,90.00,100.00,86.46,0.22,166.10,2.87,0.09,61.33, 
12/05/2018 16:54:51,31.00,-5.765117,-35.204158,ovf,166.67,90.00,100.00,86.46,0.22,166.13,3.07,0.06,60.93, 
12/05/2018 16:54:52,31.20,-5.765117,-35.204158,ovf,166.67,90.00,100.00,86.46,0.22,165.91,2.80,0.06,60.22, 
12/05/2018 16:54:52,31.40,-5.765117,-35.204158,ovf,166.67,90.00,100.00,43.90,0.74,165.91,2.73,-0.02,61.35, 
12/05/2018 16:54:52,31.60,-5.765117,-35.204158,ovf,166.67,90.00,100.00,43.90,0.74,165.84,2.92,0.03,60.42, 
12/05/2018 16:54:52,31.80,-5.765117,-35.204158,ovf,166.67,90.00,100.00,43.90,0.74,165.77,2.82,-0.24,60.10, 
12/05/2018 16:54:53,32.00,-5.765117,-35.204158,ovf,166.67,90.00,100.00,43.90,0.74,165.68,2.79,0.02,59.58, 
12/05/2018 16:54:53,32.20,-5.765117,-35.204158,ovf,166.67,90.00,100.00,198.29,0.37,164.20,2.42,0.49,58.17, 
12/05/2018 16:54:53,32.40,-5.765117,-35.204158,ovf,166.67,90.00,100.00,198.29,0.37,163.91,2.87,-0.13,59.30, 
12/05/2018 16:54:53,32.60,-5.765117,-35.204158,ovf,166.67,90.00,100.00,198.29,0.37,163.82,2.75,-0.00,59.15, 
12/05/2018 16:54:54,32.80,-5.765117,-35.204158,ovf,166.67,90.00,100.00,198.29,0.37,163.82,2.75,-0.11,59.11, 
12/05/2018 16:54:54,33.00,-5.765117,-35.204158,ovf,166.67,90.00,100.00,198.29,0.37,163.90,2.75,-0.21,59.14, 
12/05/2018 16:54:54,33.20,-5.765117,-35.204158,ovf,166.67,90.00,100.00,198.29,0.37,163.70,2.70,-0.07,58.14, 
12/05/2018 16:54:54,33.40,-5.765117,-35.204158,ovf,166.67,90.00,100.00,284.63,0.15,163.69,2.89,-0.06,58.51, 
12/05/2018 16:54:55,33.60,-5.765117,-35.204158,ovf,166.67,90.00,100.00,284.63,0.15,163.43,2.26,-0.81,58.63, 
12/05/2018 16:54:55,33.80,-5.765117,-35.204158,ovf,166.67,90.00,100.00,32.54,0.54,163.38,2.75,-0.23,58.20, 
12/05/2018 16:54:55,34.00,-5.765117,-35.204158,ovf,166.67,90.00,100.00,32.54,0.54,163.31,2.66,-0.22,58.12, 
12/05/2018 16:54:55,34.20,-5.765117,-35.204158,ovf,166.67,90.00,100.00,32.54,0.54,163.22,2.71,-0.07,58.43, 
12/05/2018 16:54:56,34.40,-5.765115,-35.204158,ovf,166.67,90.00,100.00,32.54,0.54,163.19,2.77,0.01,58.81, 
12/05/2018 16:54:56,34.60,-5.765115,-35.204158,ovf,166.67,90.00,100.00,56.09,0.41,163.05,2.76,-0.11,57.96, 
12/05/2018 16:54:56,34.80,-5.765115,-35.204158,ovf,166.67,90.00,100.00,56.09,0.41,163.04,2.88,-0.05,58.16, 
12/05/2018 16:54:56,35.00,-5.765115,-35.204158,ovf,166.67,90.00,100.00,56.09,0.41,163.03,2.85,-0.02,57.15, 
12/05/2018 16:54:57,35.20,-5.765115,-35.204158,ovf,166.67,90.00,100.00,56.09,0.41,163.08,2.74,-0.05,57.08, 
12/05/2018 16:54:57,35.40,-5.765115,-35.204158,ovf,166.67,90.00,100.00,167.55,0.28,163.15,2.81,0.09,58.21, 
12/05/2018 16:54:57,35.60,-5.765115,-35.204158,ovf,166.67,90.00,100.00,167.55,0.28,163.21,2.82,-0.06,58.72, 
12/05/2018 16:54:57,35.80,-5.765115,-35.204158,ovf,166.67,90.00,100.00,167.55,0.28,163.18,2.82,-0.09,58.11, 
12/05/2018 16:54:58,36.00,-5.765117,-35.204158,ovf,166.67,90.00,100.00,167.55,0.28,163.19,2.91,-0.04,58.55, 
12/05/2018 16:54:58,36.20,-5.765117,-35.204158,ovf,166.67,90.00,100.00,294.17,0.24,163.21,2.90,-0.30,58.22, 
12/05/2018 16:54:58,36.40,-5.765117,-35.204158,ovf,166.67,90.00,100.00,294.17,0.24,163.27,2.84,-0.10,59.57, 
12/05/2018 16:54:58,36.60,-5.765117,-35.204158,ovf,166.67,90.00,100.00,294.17,0.24,163.40,2.81,0.06,58.76, 
12/05/2018 16:54:59,36.80,-5.765117,-35.204158,ovf,166.67,90.00,100.00,294.17,0.24,163.40,2.68,-0.00,58.52, 
12/05/2018 16:54:59,37.00,-5.765117,-35.204158,ovf,166.67,90.00,100.00,294.17,0.24,163.40,2.77,0.11,58.17, 
12/05/2018 16:54:59,37.20,-5.765117,-35.204158,ovf,166.67,90.00,100.00,294.17,0.24,163.45,2.50,-0.11,58.53, 
12/05/2018 16:54:59,37.40,-5.765117,-35.204158,ovf,166.67,90.00,100.00,231.04,0.19,163.32,2.69,-0.03,57.71, 
12/05/2018 16:55:00,37.60,-5.765117,-35.204158,ovf,166.67,90.00,100.00,231.04,0.19,163.24,2.75,-0.50,58.91, 
12/05/2018 16:55:00,37.80,-5.765117,-35.204158,ovf,166.67,90.00,100.00,329.77,0.00,162.96,2.90,-0.04,58.34, 
12/05/2018 16:55:00,38.00,-5.765117,-35.204158,ovf,166.67,90.00,100.00,329.77,0.00,163.09,2.78,-0.20,57.95, 
12/05/2018 16:55:00,38.20,-5.765117,-35.204158,ovf,166.67,90.00,100.00,329.77,0.00,163.02,2.74,-0.02,58.14, 
12/05/2018 16:55:01,38.40,-5.765117,-35.204158,ovf,166.67,90.00,100.00,329.77,0.00,163.05,2.72,-0.22,57.62, 
12/05/2018 16:55:01,38.60,-5.765117,-35.204158,ovf,166.67,90.00,100.00,353.08,0.06,162.99,2.80,-0.08,56.66, 
12/05/2018 16:55:01,38.80,-5.765117,-35.204158,ovf,166.67,90.00,100.00,353.08,0.06,162.91,2.76,-0.28,58.03, 6.10,511.3,0.000,0.00,0,0¿ﬂÒo¿S§
12/05/2018 16:55:01,39.00,-5.765117,-35.204158,ovf,166.67,90.00,100.00,353.08,0.06,161.65,-1.15,-0.26,56.49, 
12/05/2018 16:55:02,39.20,-5.765117,-35.204158,ovf,166.67,90.00,100.00,353.08,0.06,159.97,-5.76,1.21,49.43, 
12/05/2018 16:55:02,39.40,-5.765117,-35.204158,ovf,166.67,90.00,100.00,353.08,0.06,159.29,-4.23,0.38,52.55, 
12/05/2018 16:55:02,39.60,-5.765117,-35.204158,ovf,166.67,90.00,100.00,268.38,0.15,158.81,0.47,0.06,54.39, 
12/05/2018 16:55:02,39.80,-5.765117,-35.204158,ovf,166.67,90.00,100.00,268.38,0.15,159.95,3.02,-0.28,57.74, 
12/05/2018 16:55:03,40.00,-5.765115,-35.204158,ovf,166.67,90.00,100.00,268.38,0.15,160.55,2.77,-0.22,56.47, 
12/05/2018 16:55:03,40.20,-5.765115,-35.204158,ovf,166.67,90.00,100.00,268.38,0.15,160.92,2.71,-0.35,56.92, 
12/05/2018 16:55:03,40.40,-5.765115,-35.204158,ovf,166.67,90.00,100.00,49.12,0.24,161.27,2.91,-0.43,57.35, 
12/05/2018 16:55:03,40.60,-5.765115,-35.204158,ovf,166.67,90.00,100.00,49.12,0.24,161.58,2.79,-0.26,57.99, 
12/05/2018 16:55:04,40.80,-5.765115,-35.204158,ovf,166.67,90.00,100.00,49.12,0.24,161.70,2.76,-0.24,57.55, 
12/05/2018 16:55:04,41.00,-5.765115,-35.204158,ovf,166.67,90.00,100.00,49.12,0.24,161.85,2.81,-0.25,57.07, 
12/05/2018 16:55:04,41.20,-5.765115,-35.204158,ovf,166.67,90.00,100.00,49.12,0.24,161.91,2.72,-0.31,56.56, 
12/05/2018 16:55:04,41.40,-5.765115,-35.204158,ovf,166.67,90.00,100.00,49.12,0.24,161.91,2.74,-0.26,56.35, 
12/05/2018 16:55:04,41.60,-5.765115,-35.204158,ovf,166.67,90.00,100.00,5.13,0.19,161.93,2.79,-0.31,56.30, 
12/05/2018 16:55:05,41.80,-5.765115,-35.204158,ovf,166.67,90.00,100.00,5.13,0.19,161.94,2.70,-0.33,57.25, 
12/05/2018 16:55:05,42.00,-5.765115,-35.204158,ovf,166.67,90.00,100.00,196.55,0.11,161.97,2.78,-0.31,56.70, 
12/05/2018 16:55:05,42.20,-5.765115,-35.204158,ovf,166.67,90.00,100.00,196.55,0.11,161.95,2.71,-0.23,57.03, 
12/05/2018 16:55:05,42.40,-5.765115,-35.204158,ovf,166.67,90.00,100.00,196.55,0.11,161.97,2.71,-0.31,56.77, 
12/05/2018 16:55:06,42.60,-5.765115,-35.204158,ovf,166.67,90.00,100.00,196.55,0.11,161.97,2.66,-0.30,56.86, 
12/05/2018 16:55:06,42.80,-5.765115,-35.204158,ovf,166.67,90.00,100.00,61.82,0.04,162.00,2.79,-0.32,56.97, 
12/05/2018 16:55:06,43.00,-5.765115,-35.204158,ovf,166.67,90.00,100.00,61.82,0.04,161.94,2.73,-0.29,56.62, 
12/05/2018 16:55:06,43.20,-5.765115,-35.204158,ovf,166.67,90.00,100.00,61.82,0.04,161.97,2.69,-0.26,56.47, 
12/05/2018 16:55:07,43.40,-5.765115,-35.204158,ovf,166.67,90.00,100.00,61.82,0.04,161.98,2.70,-0.19,56.37, 
12/05/2018 16:55:07,43.60,-5.765115,-35.204158,ovf,166.67,90.00,100.00,217.77,0.17,161.88,2.96,-0.36,57.04, 
12/05/2018 16:55:07,43.80,-5.765115,-35.204158,ovf,166.67,90.00,100.00,217.77,0.17,161.94,2.73,-0.35,56.52, 
12/05/2018 16:55:07,44.00,-5.765115,-35.204158,ovf,166.67,90.00,100.00,217.77,0.17,161.94,2.76,-0.33,57.78, 
12/05/2018 16:55:08,44.20,-5.765115,-35.204158,ovf,166.67,90.00,100.00,217.77,0.17,161.99,2.88,-0.40,56.22, 
12/05/2018 16:55:08,44.40,-5.765115,-35.204158,ovf,166.67,90.00,100.00,31.89,0.41,161.92,2.76,-0.36,57.58, 
12/05/2018 16:55:08,44.60,-5.765115,-35.204158,ovf,166.67,90.00,100.00,31.89,0.41,161.97,2.75,-0.30,56.91, 
12/05/2018 16:55:08,44.80,-5.765115,-35.204158,ovf,166.67,90.00,100.00,31.89,0.41,161.96,2.65,-0.34,57.07, 
12/05/2018 16:55:09,45.00,-5.765115,-35.204158,ovf,166.67,90.00,100.00,31.89,0.41,161.97,2.78,-0.37,57.89, 
12/05/2018 16:55:09,45.20,-5.765115,-35.204158,ovf,166.67,90.00,100.00,31.89,0.41,162.02,2.70,-0.39,56.65, 
12/05/2018 16:55:09,45.40,-5.765115,-35.204158,ovf,166.67,90.00,100.00,31.89,0.41,162.03,2.74,-0.26,56.60, 
12/05/2018 16:55:09,45.60,-5.765115,-35.204158,ovf,166.67,90.00,100.00,3.65,0.26,161.98,2.67,-0.40,57.24, 
12/05/2018 16:55:10,45.80,-5.765113,-35.204158,ovf,166.67,90.00,100.00,3.65,0.26,162.02,2.74,-0.41,56.90, 
12/05/2018 16:55:10,46.00,-5.765113,-35.204158,ovf,166.67,90.00,100.00,277.20,0.17,162.02,2.76,-0.25,56.22, 
12/05/2018 16:55:10,46.20,-5.765113,-35.204158,ovf,166.67,90.00,100.00,277.20,0.17,161.98,2.68,-0.12,57.16, 
12/05/2018 16:55:10,46.40,-5.765113,-35.204158,ovf,166.67,90.00,100.00,277.20,0.17,162.00,2.78,-0.30,56.16, 
12/05/2018 16:55:11,46.60,-5.765113,-35.204158,ovf,166.67,90.00,100.00,277.20,0.17,161.97,2.73,-0.38,56.30, 
12/05/2018 16:55:11,46.80,-5.765113,-35.204158,ovf,166.67,90.00,100.00,41.92,0.13,161.97,2.72,-0.23,56.59, 
12/05/2018 16:55:11,47.00,-5.765113,-35.204158,ovf,166.67,90.00,100.00,41.92,0.13,161.94,2.67,-0.41,57.61, 
12/05/2018 16:55:11,47.20,-5.765113,-35.204158,ovf,166.67,90.00,100.00,41.92,0.13,162.00,2.75,-0.29,57.12, 
12/05/2018 16:55:12,47.40,-5.765113,-35.204158,ovf,166.67,90.00,100.00,41.92,0.13,162.01,2.64,-0.33,57.10, 
12/05/2018 16:55:12,47.60,-5.765113,-35.204158,ovf,166.67,90.00,100.00,281.24,0.35,162.00,2.77,-0.39,56.97, 
12/05/2018 16:55:12,47.80,-5.765113,-35.204158,ovf,166.67,90.00,100.00,281.24,0.35,161.96,2.75,-0.36,56.70, 
12/05/2018 16:55:12,48.00,-5.765113,-35.204158,ovf,166.67,90.00,100.00,281.24,0.35,161.96,2.75,-0.43,56.70, 
12/05/2018 16:55:13,48.20,-5.765113,-35.204158,ovf,166.67,90.00,100.00,281.24,0.35,161.99,2.77,-0.32,56.75, 
12/05/2018 16:55:13,48.40,-5.765113,-35.204158,ovf,166.67,90.00,100.00,267.28,0.57,162.00,2.72,-0.44,57.26, 
12/05/2018 16:55:13,48.60,-5.765113,-35.204158,ovf,166.67,90.00,100.00,267.28,0.57,161.99,2.70,-0.31,57.20, 
12/05/2018 16:55:13,48.80,-5.765113,-35.204158,ovf,166.67,90.00,100.00,267.28,0.57,161.98,2.73,-0.26,56.51, 
12/05/2018 16:55:14,49.00,-5.765115,-35.204158,ovf,166.67,90.00,100.00,267.28,0.57,161.97,2.83,-0.25,57.02, 6.10,586.3,0.000,0.00,0,0¿ﬂÒ
12/05/2018 16:55:14,49.20,-5.765115,-35.204158,ovf,166.67,90.00,100.00,267.28,0.57,161.93,2.65,-0.49,57.02, o¿S§
12/05/2018 16:55:14,49.40,-5.765115,-35.204158,ovf,166.67,90.00,100.00,267.28,0.57,161.92,2.66,-0.44,57.10, 
12/05/2018 16:55:14,49.60,-5.765115,-35.204158,ovf,166.67,90.00,100.00,271.11,0.22,161.96,2.69,-0.35,56.86, 
12/05/2018 16:55:15,49.80,-5.765115,-35.204162,ovf,166.67,90.00,100.00,271.11,0.22,161.95,2.68,-0.90,56.92, 
12/05/2018 16:55:15,50.00,-5.765115,-35.204162,ovf,166.67,90.00,100.00,180.30,0.31,163.79,2.09,-5.68,60.13, 
12/05/2018 16:55:15,50.20,-5.765115,-35.204162,ovf,166.67,90.00,100.00,180.30,0.31,163.86,2.26,-4.20,60.03, 
12/05/2018 16:55:15,50.40,-5.765115,-35.204162,ovf,166.67,90.00,100.00,180.30,0.31,163.99,2.64,-0.75,58.25, 
12/05/2018 16:55:16,50.60,-5.765117,-35.204162,ovf,166.67,90.00,100.00,180.30,0.31,163.70,2.44,-0.12,57.13, 
12/05/2018 16:55:16,50.80,-5.765117,-35.204162,ovf,166.67,90.00,100.00,291.04,0.04,163.44,2.43,-0.57,58.33, 
12/05/2018 16:55:16,51.00,-5.765117,-35.204162,ovf,166.67,90.00,100.00,291.04,0.04,163.40,2.42,-0.14,57.85, 
12/05/2018 16:55:16,51.20,-5.765117,-35.204162,ovf,166.67,90.00,100.00,291.04,0.04,163.37,2.72,-0.30,57.82, 
12/05/2018 16:55:17,51.40,-5.765115,-35.204158,ovf,166.67,90.00,100.00,291.04,0.04,163.31,2.78,-0.79,59.19, 
12/05/2018 16:55:17,51.60,-5.765115,-35.204158,ovf,166.67,90.00,100.00,23.41,0.57,162.13,4.48,1.28,58.36, 
12/05/2018 16:55:17,51.80,-5.765115,-35.204158,ovf,166.67,90.00,100.00,23.41,0.57,165.87,8.06,-0.26,64.55, 
12/05/2018 16:55:17,52.00,-5.765115,-35.204158,ovf,166.67,90.00,100.00,23.41,0.57,168.86,-4.34,2.21,56.98, 
12/05/2018 16:55:18,52.20,-5.765113,-35.204162,ovf,166.67,90.00,100.00,23.41,0.57,167.80,-2.46,-1.53,57.73, 
12/05/2018 16:55:18,52.40,-5.765113,-35.204162,ovf,166.67,90.00,100.00,23.41,0.57,168.82,-0.53,-6.64,65.10, 
12/05/2018 16:55:18,52.60,-5.765113,-35.204162,ovf,166.67,90.00,100.00,193.81,0.13,169.80,-1.87,-8.02,64.72, 
12/05/2018 16:55:18,52.80,-5.765113,-35.204162,ovf,166.67,90.00,100.00,193.81,0.13,170.60,-0.17,-10.20,66.73, 
12/05/2018 16:55:19,53.00,-5.765113,-35.204158,ovf,166.67,90.00,100.00,193.81,0.13,173.24,0.25,-10.75,69.22, 
12/05/2018 16:55:19,53.20,-5.765113,-35.204158,ovf,166.67,90.00,100.00,193.81,0.13,175.06,0.64,-11.95,70.58, 
12/05/2018 16:55:19,53.40,-5.765113,-35.204158,ovf,166.67,90.00,100.00,193.81,0.13,176.28,3.01,-13.35,75.18, 
12/05/2018 16:55:19,53.60,-5.765113,-35.204158,ovf,166.67,90.00,100.00,193.81,0.13,177.80,2.45,-13.35,74.14, 
12/05/2018 16:55:20,53.80,-5.765113,-35.204158,ovf,166.67,90.00,100.00,133.46,0.04,-179.06,3.26,-12.24,76.33, 
12/05/2018 16:55:20,54.00,-5.765113,-35.204158,ovf,166.67,90.00,100.00,133.46,0.04,-176.11,4.81,-10.62,81.60, 
12/05/2018 16:55:20,54.20,-5.765113,-35.204158,ovf,166.67,90.00,100.00,42.05,0.30,-175.42,3.43,-9.54,80.80, 
12/05/2018 16:55:20,54.40,-5.765113,-35.204158,ovf,166.67,90.00,100.00,42.05,0.30,-174.51,2.77,-8.79,79.47, 
12/05/2018 16:55:20,54.60,-5.765113,-35.204158,ovf,166.67,90.00,100.00,42.05,0.30,-173.94,-2.55,-2.50,73.52, 
12/05/2018 16:55:21,54.80,-5.765113,-35.204162,ovf,166.67,90.00,100.00,42.05,0.30,-174.94,-1.76,-2.02,74.20, 
12/05/2018 16:55:21,55.00,-5.765113,-35.204162,ovf,166.67,90.00,100.00,311.81,0.30,-178.76,-3.84,1.78,69.06, 
12/05/2018 16:55:21,55.20,-5.765113,-35.204162,ovf,166.67,90.00,100.00,311.81,0.30,178.04,-1.45,2.80,69.65, 
12/05/2018 16:55:21,55.40,-5.765113,-35.204162,ovf,166.67,90.00,100.00,311.81,0.30,172.92,-0.03,4.54,65.00, 
12/05/2018 16:55:22,55.60,-5.765113,-35.204158,ovf,166.67,90.00,100.00,311.81,0.30,171.98,2.56,6.20,67.72, 
12/05/2018 16:55:22,55.80,-5.765113,-35.204158,ovf,166.67,90.00,100.00,93.62,0.19,169.96,3.66,7.08,66.92, 
12/05/2018 16:55:22,56.00,-5.765113,-35.204158,ovf,166.67,90.00,100.00,93.62,0.19,165.25,9.67,7.76,65.34, 
12/05/2018 16:55:22,56.20,-5.765113,-35.204158,ovf,166.67,90.00,100.00,93.62,0.19,166.49,13.28,9.28,71.00, 
12/05/2018 16:55:23,56.40,-5.765113,-35.204158,ovf,166.67,90.00,100.00,93.62,0.19,166.10,11.49,8.39,64.97, 
12/05/2018 16:55:23,56.60,-5.765113,-35.204158,ovf,166.67,90.00,100.00,305.05,0.09,166.29,12.84,5.87,66.36, 
12/05/2018 16:55:23,56.80,-5.765113,-35.204158,ovf,166.67,90.00,100.00,305.05,0.09,166.20,14.22,6.51,66.85, 
12/05/2018 16:55:23,57.00,-5.765113,-35.204158,ovf,166.67,90.00,100.00,305.05,0.09,162.97,12.32,6.28,60.31, 
12/05/2018 16:55:24,57.20,-5.765113,-35.204158,ovf,166.67,90.00,100.00,305.05,0.09,162.84,5.67,-0.58,56.95, 
12/05/2018 16:55:24,57.40,-5.765113,-35.204158,ovf,166.67,90.00,100.00,305.05,0.09,161.96,9.60,-5.16,58.86, 
12/05/2018 16:55:24,57.60,-5.765113,-35.204158,ovf,166.67,90.00,100.00,305.05,0.09,164.91,17.95,-0.56,65.33, 
12/05/2018 16:55:24,57.80,-5.765113,-35.204158,ovf,166.67,90.00,100.00,146.47,0.17,176.42,21.30,4.05,82.37, 
12/05/2018 16:55:25,58.00,-5.765113,-35.204158,ovf,166.67,90.00,100.00,146.47,0.17,174.88,17.68,-0.71,71.97, 
12/05/2018 16:55:25,58.20,-5.765113,-35.204158,ovf,166.67,90.00,100.00,49.86,0.20,178.57,13.97,3.73,71.48, 
12/05/2018 16:55:25,58.40,-5.765113,-35.204158,ovf,166.67,90.00,100.00,49.86,0.20,175.07,11.64,-0.47,68.97, 
12/05/2018 16:55:25,58.60,-5.765113,-35.204158,ovf,166.67,90.00,100.00,49.86,0.20,175.55,3.18,-2.42,63.36, 
12/05/2018 16:55:26,58.80,-5.765113,-35.204158,ovf,166.67,90.00,100.00,49.86,0.20,176.80,0.71,-2.07,63.18, 
12/05/2018 16:55:26,59.00,-5.765113,-35.204158,ovf,166.67,90.00,100.00,64.45,0.09,176.14,2.54,-3.00,65.44, 
12/05/2018 16:55:26,59.20,-5.765113,-35.204158,ovf,166.67,90.00,100.00,64.45,0.09,175.34,0.12,-2.29,63.77, 
12/05/2018 16:55:26,59.40,-5.765113,-35.204158,ovf,166.67,90.00,100.00,64.45,0.09,176.48,-1.28,-5.60,67.77, 5.43,328.9,0.000,0.00,0,0¿ﬂÒo¿S§
12/05/2018 16:55:27,59.60,-5.765115,-35.204158,ovf,166.67,90.00,100.00,64.45,0.09,-179.89,-1.76,-2.79,69.93, 
12/05/2018 16:55:27,59.80,-5.765115,-35.204158,ovf,166.67,90.00,100.00,200.24,0.22,176.09,-0.34,-3.18,70.95, 
12/05/2018 16:55:27,60.00,-5.765115,-35.204158,ovf,166.67,90.00,100.00,200.24,0.22,175.34,3.51,0.27,70.69, 
12/05/2018 16:55:27,60.20,-5.765115,-35.204158,ovf,166.67,90.00,100.00,200.24,0.22,170.71,1.77,-4.01,66.12, 
12/05/2018 16:55:28,60.40,-5.765115,-35.204158,ovf,166.67,90.00,100.00,200.24,0.22,168.76,-0.40,-6.87,63.32, 
12/05/2018 16:55:28,60.60,-5.765115,-35.204158,ovf,166.67,90.00,100.00,133.77,0.26,168.08,-0.34,-7.50,62.71, 
12/05/2018 16:55:28,60.80,-5.765115,-35.204158,ovf,166.67,90.00,100.00,133.77,0.26,166.88,3.45,-2.36,63.17, 
12/05/2018 16:55:28,61.00,-5.765115,-35.204158,ovf,166.67,90.00,100.00,133.77,0.26,167.90,4.20,-2.12,64.13, 
12/05/2018 16:55:29,61.20,-5.765117,-35.204154,ovf,166.67,90.00,100.00,133.77,0.26,166.70,3.35,-3.32,62.41, 
12/05/2018 16:55:29,61.40,-5.765117,-35.204154,ovf,166.67,90.00,100.00,133.77,0.26,166.19,2.54,-5.76,62.40, 
12/05/2018 16:55:29,61.60,-5.765117,-35.204154,ovf,166.67,90.00,100.00,133.77,0.26,167.19,3.26,-5.57,64.07, 
12/05/2018 16:55:29,61.80,-5.765117,-35.204154,ovf,166.67,90.00,100.00,144.40,0.26,168.18,3.55,-5.94,65.22, 
12/05/2018 16:55:30,62.00,-5.765117,-35.204154,ovf,166.67,90.00,100.00,144.40,0.26,173.67,1.80,-2.56,65.18, 
12/05/2018 16:55:30,62.20,-5.765117,-35.204154,ovf,166.67,90.00,100.00,359.25,0.20,176.13,2.45,-7.32,70.03, 
12/05/2018 16:55:30,62.40,-5.765117,-35.204154,ovf,166.67,90.00,100.00,359.25,0.20,178.93,2.43,-13.71,74.92, 
12/05/2018 16:55:30,62.60,-5.765117,-35.204154,ovf,166.67,90.00,100.00,359.25,0.20,179.96,5.62,-23.03,80.34, 
12/05/2018 16:55:31,62.80,-5.765117,-35.204154,ovf,166.67,90.00,100.00,359.25,0.20,-177.47,7.76,-25.73,82.66, 
12/05/2018 16:55:31,63.00,-5.765117,-35.204154,ovf,166.67,90.00,100.00,8.41,0.61,-175.51,9.58,-31.63,83.87, 
12/05/2018 16:55:31,63.20,-5.765117,-35.204154,ovf,166.67,90.00,100.00,8.41,0.61,-173.00,9.50,-37.84,85.51, 
12/05/2018 16:55:31,63.40,-5.765117,-35.204154,ovf,166.67,90.00,100.00,8.41,0.61,-169.49,11.65,-38.82,90.23, 
12/05/2018 16:55:32,63.60,-5.765118,-35.204154,ovf,166.67,90.00,100.00,8.41,0.61,-168.73,9.94,-44.93,88.69, 
12/05/2018 16:55:32,63.80,-5.765118,-35.204154,ovf,166.67,90.00,100.00,302.46,0.37,-167.26,10.22,-48.80,89.36, 
12/05/2018 16:55:32,64.00,-5.765118,-35.204154,ovf,166.67,90.00,100.00,302.46,0.37,-168.01,10.18,-50.44,89.34, 
12/05/2018 16:55:32,64.20,-5.765118,-35.204154,ovf,166.67,90.00,100.00,302.46,0.37,-168.64,9.31,-53.43,87.84, 
12/05/2018 16:55:33,64.40,-5.765118,-35.204151,ovf,166.67,90.00,100.00,302.46,0.37,-169.04,9.65,-54.18,87.36, 
12/05/2018 16:55:33,64.60,-5.765118,-35.204151,ovf,166.67,90.00,100.00,219.29,0.19,-168.96,9.35,-54.72,86.90, 
12/05/2018 16:55:33,64.80,-5.765118,-35.204151,ovf,166.67,90.00,100.00,219.29,0.19,-169.19,9.46,-54.33,86.81, 
12/05/2018 16:55:33,65.00,-5.765118,-35.204151,ovf,166.67,90.00,100.00,219.29,0.19,-167.90,9.33,-51.12,86.58, 
12/05/2018 16:55:34,65.20,-5.765118,-35.204154,ovf,166.67,90.00,100.00,219.29,0.19,-166.97,10.93,-48.97,89.24, 
12/05/2018 16:55:34,65.40,-5.765118,-35.204154,ovf,166.67,90.00,100.00,219.29,0.19,-166.97,9.59,-48.36,88.25, 
12/05/2018 16:55:34,65.60,-5.765118,-35.204154,ovf,166.67,90.00,100.00,219.29,0.19,-167.47,9.82,-45.34,88.57, 
12/05/2018 16:55:34,65.80,-5.765118,-35.204154,ovf,166.67,90.00,100.00,325.06,0.26,-168.40,8.15,-45.51,85.53, 
12/05/2018 16:55:35,66.00,-5.765118,-35.204158,ovf,166.67,90.00,100.00,325.06,0.26,-170.03,8.06,-46.74,84.72, 
12/05/2018 16:55:35,66.20,-5.765118,-35.204158,ovf,166.67,90.00,100.00,325.06,0.26,-169.44,7.42,-47.40,83.89, 
12/05/2018 16:55:35,66.40,-5.765118,-35.204158,ovf,166.67,90.00,100.00,345.02,0.19,-169.31,8.53,-46.13,85.87, 
12/05/2018 16:55:35,66.60,-5.765118,-35.204158,ovf,166.67,90.00,100.00,345.02,0.19,-169.33,7.65,-45.29,85.26, 
12/05/2018 16:55:36,66.80,-5.765118,-35.204158,ovf,166.67,90.00,100.00,345.02,0.19,-169.85,8.17,-45.64,84.48, 
12/05/2018 16:55:36,67.00,-5.765118,-35.204158,ovf,166.67,90.00,100.00,345.02,0.19,-168.77,8.47,-46.07,86.04, 
12/05/2018 16:55:36,67.20,-5.765118,-35.204158,ovf,166.67,90.00,100.00,356.96,0.35,-169.61,8.75,-46.12,86.50, 
12/05/2018 16:55:36,67.40,-5.765118,-35.204158,ovf,166.67,90.00,100.00,356.96,0.35,-169.09,7.50,-46.99,84.63, 
12/05/2018 16:55:37,67.60,-5.765118,-35.204158,ovf,166.67,90.00,100.00,356.96,0.35,-168.86,8.25,-48.13,85.53, 
12/05/2018 16:55:37,67.80,-5.765118,-35.204158,ovf,166.67,90.00,100.00,356.96,0.35,-168.53,7.73,-50.04,87.71, 
12/05/2018 16:55:37,68.00,-5.765118,-35.204158,ovf,166.67,90.00,100.00,158.97,0.13,-169.08,7.35,-54.09,86.38, 
12/05/2018 16:55:37,68.20,-5.765118,-35.204158,ovf,166.67,90.00,100.00,158.97,0.13,-169.94,6.85,-57.38,85.20, 
12/05/2018 16:55:37,68.40,-5.765118,-35.204158,ovf,166.67,90.00,100.00,158.97,0.13,-169.25,6.89,-58.32,85.51, 
12/05/2018 16:55:38,68.60,-5.765118,-35.204158,ovf,166.67,90.00,100.00,158.97,0.13,-169.12,5.99,-60.70,85.48, 
12/05/2018 16:55:38,68.80,-5.765118,-35.204158,ovf,166.67,90.00,100.00,53.99,0.13,-168.69,4.78,-60.85,85.24, 
12/05/2018 16:55:38,69.00,-5.765118,-35.204158,ovf,166.67,90.00,100.00,53.99,0.13,-168.00,4.82,-62.87,86.24, 
12/05/2018 16:55:38,69.20,-5.765118,-35.204158,ovf,166.67,90.00,100.00,53.99,0.13,-168.62,5.27,-64.98,86.19, 
12/05/2018 16:55:39,69.40,-5.765120,-35.204158,ovf,166.67,90.00,100.00,53.99,0.13,-168.25,6.87,-65.08,87.27, 
12/05/2018 16:55:39,69.60,-5.765120,-35.204158,ovf,166.67,90.00,100.00,53.99,0.13,-168.69,6.69,-66.54,86.39, 5.73,379.5,0.000,0.00,0,0¿ﬂÒo¿S§
12/05/2018 16:55:39,69.80,-5.765120,-35.204158,ovf,166.67,90.00,100.00,53.99,0.13,-169.19,7.90,-70.28,87.31, 
12/05/2018 16:55:39,70.00,-5.765120,-35.204158,ovf,166.67,90.00,100.00,236.60,0.28,-168.74,8.57,-70.33,87.72, 
12/05/2018 16:55:40,70.20,-5.765120,-35.204158,ovf,166.67,90.00,100.00,236.60,0.28,-168.78,8.48,-70.93,87.09, 
12/05/2018 16:55:40,70.40,-5.765120,-35.204158,ovf,166.67,90.00,100.00,320.36,0.17,-168.54,8.31,-70.74,87.17, 
12/05/2018 16:55:40,70.60,-5.765120,-35.204158,ovf,166.67,90.00,100.00,320.36,0.17,-168.91,9.20,-72.64,87.11, 
12/05/2018 16:55:40,70.80,-5.765120,-35.204158,ovf,166.67,90.00,100.00,320.36,0.17,-168.99,8.59,-74.14,86.73, 
12/05/2018 16:55:41,71.00,-5.765120,-35.204158,ovf,166.67,90.00,100.00,320.36,0.17,-169.43,7.88,-75.36,86.05, 
12/05/2018 16:55:41,71.20,-5.765120,-35.204158,ovf,166.67,90.00,100.00,330.61,0.30,-169.39,8.21,-74.70,86.14, 
12/05/2018 16:55:41,71.40,-5.765120,-35.204158,ovf,166.67,90.00,100.00,330.61,0.30,-170.12,7.82,-76.20,85.60, 
12/05/2018 16:55:41,71.60,-5.765120,-35.204158,ovf,166.67,90.00,100.00,330.61,0.30,-169.34,6.55,-77.61,85.35, 
12/05/2018 16:55:42,71.80,-5.765123,-35.204158,ovf,166.67,90.00,100.00,330.61,0.30,-167.27,6.26,-73.85,85.94, 
12/05/2018 16:55:42,72.00,-5.765123,-35.204158,ovf,166.67,90.00,100.00,207.62,0.41,-165.86,7.33,-71.00,88.36, 
12/05/2018 16:55:42,72.20,-5.765123,-35.204158,ovf,166.67,90.00,100.00,207.62,0.41,-166.75,8.14,-73.20,88.65, 
12/05/2018 16:55:42,72.40,-5.765123,-35.204158,ovf,166.67,90.00,100.00,207.62,0.41,-166.71,7.82,-72.39,88.01, 
12/05/2018 16:55:43,72.60,-5.765123,-35.204158,ovf,166.67,90.00,100.00,207.62,0.41,-166.83,7.88,-72.25,88.34, 
12/05/2018 16:55:43,72.80,-5.765123,-35.204158,ovf,166.67,90.00,100.00,106.13,0.26,-165.55,8.10,-71.73,88.73, 
12/05/2018 16:55:43,73.00,-5.765123,-35.204158,ovf,166.67,90.00,100.00,106.13,0.26,-165.57,8.43,-73.40,88.87, 
12/05/2018 16:55:43,73.20,-5.765123,-35.204158,ovf,166.67,90.00,100.00,106.13,0.26,-166.02,8.40,-74.92,89.48, 
12/05/2018 16:55:44,73.40,-5.765125,-35.204154,ovf,166.67,90.00,100.00,106.13,0.26,-165.70,8.15,-73.60,89.24, 
12/05/2018 16:55:44,73.60,-5.765125,-35.204154,ovf,166.67,90.00,100.00,106.13,0.26,-165.45,8.31,-72.34,90.12, 
12/05/2018 16:55:44,73.80,-5.765125,-35.204154,ovf,166.67,90.00,100.00,106.13,0.26,-165.68,7.72,-72.05,88.92, 
12/05/2018 16:55:44,74.00,-5.765125,-35.204154,ovf,166.67,90.00,100.00,101.87,0.37,-165.71,7.80,-73.37,88.95, 
12/05/2018 16:55:45,74.20,-5.765127,-35.204158,ovf,166.67,90.00,100.00,101.87,0.37,-165.54,7.32,-73.09,88.26, 
12/05/2018 16:55:45,74.40,-5.765127,-35.204158,ovf,166.67,90.00,100.00,317.00,0.26,-166.18,7.44,-74.66,88.19, 
12/05/2018 16:55:45,74.60,-5.765127,-35.204158,ovf,166.67,90.00,100.00,317.00,0.26,-165.79,6.42,-74.88,89.18, 
12/05/2018 16:55:45,74.80,-5.765127,-35.204158,ovf,166.67,90.00,100.00,317.00,0.26,-165.64,6.98,-72.34,88.83, 
12/05/2018 16:55:46,75.00,-5.765127,-35.204158,ovf,166.67,90.00,100.00,317.00,0.26,-166.79,7.16,-73.12,88.40, 
12/05/2018 16:55:46,75.20,-5.765127,-35.204158,ovf,166.67,90.00,100.00,109.96,0.11,-167.47,6.67,-75.01,88.18, 
12/05/2018 16:55:46,75.40,-5.765127,-35.204158,ovf,166.67,90.00,100.00,109.96,0.11,-167.44,6.23,-74.50,87.63, 
12/05/2018 16:55:46,75.60,-5.765127,-35.204158,ovf,166.67,90.00,100.00,109.96,0.11,-167.23,6.66,-74.62,87.49, 
12/05/2018 16:55:47,75.80,-5.765128,-35.204158,ovf,166.67,90.00,100.00,109.96,0.11,-166.93,6.60,-74.87,87.92, 
12/05/2018 16:55:47,76.00,-5.765128,-35.204158,ovf,166.67,90.00,100.00,243.42,0.26,-167.70,6.40,-76.35,87.07, 
12/05/2018 16:55:47,76.20,-5.765128,-35.204158,ovf,166.67,90.00,100.00,243.42,0.26,-166.83,5.75,-73.02,86.86, 
12/05/2018 16:55:47,76.40,-5.765128,-35.204158,ovf,166.67,90.00,100.00,243.42,0.26,-167.31,5.22,-74.28,87.00, 
12/05/2018 16:55:48,76.60,-5.765128,-35.204158,ovf,166.67,90.00,100.00,243.42,0.26,-168.10,7.43,-76.74,87.58, 
12/05/2018 16:55:48,76.80,-5.765128,-35.204158,ovf,166.67,90.00,100.00,331.16,0.31,-167.37,6.33,-76.94,87.89, 
12/05/2018 16:55:48,77.00,-5.765128,-35.204158,ovf,166.67,90.00,100.00,331.16,0.31,-167.51,6.21,-76.75,87.56, 
12/05/2018 16:55:48,77.20,-5.765128,-35.204158,ovf,166.67,90.00,100.00,331.16,0.31,-167.45,6.36,-77.99,87.28, 
12/05/2018 16:55:49,77.40,-5.765128,-35.204154,ovf,166.67,90.00,100.00,331.16,0.31,-166.95,6.79,-74.19,87.47, 
12/05/2018 16:55:49,77.60,-5.765128,-35.204154,ovf,166.67,90.00,100.00,331.16,0.31,-168.44,7.28,-75.89,87.51, 
12/05/2018 16:55:49,77.80,-5.765128,-35.204154,ovf,166.67,90.00,100.00,331.16,0.31,-168.89,6.47,-75.64,86.94, 
12/05/2018 16:55:49,78.00,-5.765128,-35.204154,ovf,166.67,90.00,100.00,40.77,0.46,-169.18,6.47,-77.20,86.04, 
12/05/2018 16:55:50,78.20,-5.765127,-35.204151,ovf,166.67,90.00,100.00,40.77,0.46,-168.12,6.51,-76.24,86.90, 
12/05/2018 16:55:50,78.40,-5.765127,-35.204151,ovf,166.67,90.00,100.00,40.77,0.46,-167.57,7.16,-76.46,87.12, 
12/05/2018 16:55:50,78.60,-5.765127,-35.204151,ovf,166.67,90.00,100.00,359.33,0.65,-166.61,9.61,-78.31,88.52, 
12/05/2018 16:55:50,78.80,-5.765127,-35.204151,ovf,166.67,90.00,100.00,359.33,0.65,-167.47,9.71,-79.32,89.07, 
12/05/2018 16:55:51,79.00,-5.765127,-35.204151,ovf,166.67,90.00,100.00,359.33,0.65,-166.15,8.86,-78.53,89.84, 
12/05/2018 16:55:51,79.20,-5.765127,-35.204151,ovf,166.67,90.00,100.00,359.33,0.65,-165.81,7.70,-78.45,88.74, 
12/05/2018 16:55:51,79.40,-5.765127,-35.204151,ovf,166.67,90.00,100.00,307.96,0.69,-165.46,8.96,-80.73,88.69, 
12/05/2018 16:55:51,79.60,-5.765127,-35.204151,ovf,166.67,90.00,100.00,307.96,0.69,-167.34,9.50,-79.67,88.21, 
12/05/2018 16:55:52,79.80,-5.765127,-35.204154,ovf,166.67,90.00,100.00,307.96,0.69,-167.18,9.45,-78.13,88.15, 5.74,399.9,0.000,0.00,0,0¿ﬂÒo¿S§
12/05/2018 16:55:52,80.00,-5.765127,-35.204154,ovf,166.67,90.00,100.00,307.96,0.69,-166.70,8.50,-76.98,88.09, 
12/05/2018 16:55:52,80.20,-5.765127,-35.204154,ovf,166.67,90.00,100.00,285.85,0.76,-166.60,8.75,-79.20,88.54, 
12/05/2018 16:55:52,80.40,-5.765127,-35.204154,ovf,166.67,90.00,100.00,285.85,0.76,-167.20,6.49,-79.09,86.73, 
12/05/2018 16:55:53,80.60,-5.765127,-35.204158,ovf,166.67,90.00,100.00,285.85,0.76,-169.25,4.90,-80.31,84.60, 
12/05/2018 16:55:53,80.80,-5.765127,-35.204158,ovf,166.67,90.00,100.00,285.85,0.76,-171.20,5.47,-79.39,83.62, 
12/05/2018 16:55:53,81.00,-5.765127,-35.204158,ovf,166.67,90.00,100.00,54.41,0.30,-174.81,3.93,-78.58,80.44, 
12/05/2018 16:55:53,81.20,-5.765127,-35.204158,ovf,166.67,90.00,100.00,54.41,0.30,-177.37,1.47,-68.89,78.22, 
12/05/2018 16:55:53,81.40,-5.765127,-35.204158,ovf,166.67,90.00,100.00,54.41,0.30,-175.49,-2.78,-55.50,74.89, 
12/05/2018 16:55:54,81.60,-5.765128,-35.204158,ovf,166.67,90.00,100.00,54.41,0.30,-175.10,-4.61,-50.26,73.80, 
12/05/2018 16:55:54,81.80,-5.765128,-35.204158,ovf,166.67,90.00,100.00,54.41,0.30,-174.45,-1.90,-56.23,77.80, 
12/05/2018 16:55:54,82.00,-5.765128,-35.204158,ovf,166.67,90.00,100.00,54.41,0.30,-173.17,0.60,-67.25,81.71, 
12/05/2018 16:55:54,82.20,-5.765128,-35.204158,ovf,166.67,90.00,100.00,252.57,0.24,-170.80,0.52,-82.56,83.82, 
12/05/2018 16:55:55,82.40,-5.765128,-35.204158,ovf,166.67,90.00,100.00,252.57,0.24,-170.51,-0.99,-91.98,84.77, 
12/05/2018 16:55:55,82.60,-5.765128,-35.204158,ovf,166.67,90.00,100.00,354.98,0.28,-167.41,0.22,-88.32,87.08, 
12/05/2018 16:55:55,82.80,-5.765128,-35.204158,ovf,166.67,90.00,100.00,354.98,0.28,-166.21,0.06,-83.91,86.36, 
12/05/2018 16:55:55,83.00,-5.765128,-35.204158,ovf,166.67,90.00,100.00,354.98,0.28,-169.19,-1.33,-85.68,85.75, 
12/05/2018 16:55:56,83.20,-5.765130,-35.204162,ovf,166.67,90.00,100.00,354.98,0.28,-166.47,-0.69,-83.76,86.87, 
12/05/2018 16:55:56,83.40,-5.765130,-35.204162,ovf,166.67,90.00,100.00,44.39,0.15,-163.62,-2.00,-78.83,88.87, 
12/05/2018 16:55:56,83.60,-5.765130,-35.204162,ovf,166.67,90.00,100.00,44.39,0.15,-163.09,-1.99,-77.11,88.68, 
12/05/2018 16:55:56,83.80,-5.765130,-35.204162,ovf,166.67,90.00,100.00,44.39,0.15,-165.99,-1.99,-74.75,87.16, 
12/05/2018 16:55:57,84.00,-5.765128,-35.204158,ovf,166.67,90.00,100.00,44.39,0.15,-166.15,-0.84,-76.96,88.60, 
12/05/2018 16:55:57,84.20,-5.765128,-35.204158,ovf,166.67,90.00,100.00,37.78,0.43,-166.38,-0.91,-76.92,88.60, 
12/05/2018 16:55:57,84.40,-5.765128,-35.204158,ovf,166.67,90.00,100.00,37.78,0.43,-166.91,-0.41,-77.12,88.01, 
12/05/2018 16:55:57,84.60,-5.765128,-35.204158,ovf,166.67,90.00,100.00,37.78,0.43,-166.95,-1.77,-77.26,87.08, 
12/05/2018 16:55:58,84.80,-5.765127,-35.204158,ovf,166.67,90.00,100.00,37.78,0.43,-167.32,-1.91,-76.53,87.72, 
12/05/2018 16:55:58,85.00,-5.765127,-35.204158,ovf,166.67,90.00,100.00,45.51,0.41,-168.10,-0.62,-74.57,87.08, 
12/05/2018 16:55:58,85.20,-5.765127,-35.204158,ovf,166.67,90.00,100.00,45.51,0.41,-168.31,-0.39,-74.58,87.09, 
12/05/2018 16:55:58,85.40,-5.765127,-35.204158,ovf,166.67,90.00,100.00,45.51,0.41,-167.97,-0.66,-75.87,86.99, 
12/05/2018 16:55:59,85.60,-5.765125,-35.204158,ovf,166.67,90.00,100.00,45.51,0.41,-167.64,0.39,-76.36,87.77, 
12/05/2018 16:55:59,85.80,-5.765125,-35.204158,ovf,166.67,90.00,100.00,45.51,0.41,-168.78,-1.24,-80.96,86.90, 
12/05/2018 16:55:59,86.00,-5.765125,-35.204158,ovf,166.67,90.00,100.00,45.51,0.41,-166.13,-0.96,-77.35,87.81, 
12/05/2018 16:55:59,86.20,-5.765125,-35.204158,ovf,166.67,90.00,100.00,103.80,0.54,-164.69,-0.25,-75.21,89.30, 
12/05/2018 16:56:00,86.40,-5.765125,-35.204158,ovf,166.67,90.00,100.00,103.80,0.54,-162.82,-8.96,-81.55,88.37, 
12/05/2018 16:56:00,86.60,-5.765125,-35.204158,ovf,166.67,90.00,100.00,36.55,0.06,-165.61,-12.58,-80.25,86.11, 
12/05/2018 16:56:00,86.80,-5.765125,-35.204158,ovf,166.67,90.00,100.00,36.55,0.06,-165.11,-14.39,-75.48,85.99, 
12/05/2018 16:56:00,87.00,-5.765125,-35.204158,ovf,166.67,90.00,100.00,36.55,0.06,-159.07,-12.92,-81.20,89.15, 
12/05/2018 16:56:01,87.20,-5.765125,-35.204154,ovf,166.67,90.00,100.00,36.55,0.06,-164.10,-7.59,-74.63,90.23, 
12/05/2018 16:56:01,87.40,-5.765125,-35.204154,ovf,166.67,90.00,100.00,119.20,0.35,-165.54,-4.61,-72.15,90.26, 
12/05/2018 16:56:01,87.60,-5.765125,-35.204154,ovf,166.67,90.00,100.00,119.20,0.35,-165.50,-3.40,-71.00,89.65, 
12/05/2018 16:56:01,87.80,-5.765125,-35.204154,ovf,166.67,90.00,100.00,119.20,0.35,-164.22,-4.08,-68.21,89.59, 
12/05/2018 16:56:02,88.00,-5.765125,-35.204154,ovf,166.67,90.00,100.00,119.20,0.35,-165.44,-4.05,-70.48,89.48, 
12/05/2018 16:56:02,88.20,-5.765125,-35.204154,ovf,166.67,90.00,100.00,337.44,0.39,-162.83,-2.80,-66.67,90.96, 
12/05/2018 16:56:02,88.40,-5.765125,-35.204154,ovf,166.67,90.00,100.00,337.44,0.39,-161.68,-2.57,-64.88,92.69, 
12/05/2018 16:56:02,88.60,-5.765125,-35.204154,ovf,166.67,90.00,100.00,337.44,0.39,-166.85,-1.55,-60.30,90.98, 
12/05/2018 16:56:03,88.80,-5.765123,-35.204154,ovf,166.67,90.00,100.00,337.44,0.39,-165.36,-4.80,-63.39,88.62, 
12/05/2018 16:56:03,89.00,-5.765123,-35.204154,ovf,166.67,90.00,100.00,55.16,0.11,-158.47,-0.63,-66.84,94.92, 
12/05/2018 16:56:03,89.20,-5.765123,-35.204154,ovf,166.67,90.00,100.00,55.16,0.11,-159.51,-1.53,-67.96,94.60, 
12/05/2018 16:56:03,89.40,-5.765123,-35.204154,ovf,166.67,90.00,100.00,55.16,0.11,-159.51,-4.11,-67.11,91.94, 
12/05/2018 16:56:04,89.60,-5.765123,-35.204154,ovf,166.67,90.00,100.00,55.16,0.11,-158.96,-1.19,-69.05,94.41, 
12/05/2018 16:56:04,89.80,-5.765123,-35.204154,ovf,166.67,90.00,100.00,55.16,0.11,-159.48,-1.30,-71.32,93.59, 
12/05/2018 16:56:04,90.00,-5.765123,-35.204154,ovf,166.67,90.00,100.00,55.16,0.11,-159.48,-0.84,-71.18,95.13, 5.76,365.8,0.000,0.00,0,
12/05/2018 16:56:04,90.20,-5.765123,-35.204154,ovf,166.67,90.00,100.00,0.03,0.11,-159.46,0.57,-70.89,96.92, 0¿ﬂÒo¿S§
12/05/2018 16:56:05,90.40,-5.765122,-35.204151,ovf,166.67,90.00,100.00,0.03,0.11,-157.14,0.90,-70.87,98.19, 
12/05/2018 16:56:05,90.60,-5.765122,-35.204151,ovf,166.67,90.00,100.00,0.03,0.11,-153.83,1.70,-71.04,99.82, 
12/05/2018 16:56:05,90.80,-5.765122,-35.204151,ovf,166.67,90.00,100.00,108.44,0.52,-150.94,3.79,-65.48,103.42, 
12/05/2018 16:56:05,91.00,-5.765122,-35.204151,ovf,166.67,90.00,100.00,108.44,0.52,-153.09,1.83,-51.15,104.19, 
12/05/2018 16:56:06,91.20,-5.765122,-35.204151,ovf,166.67,90.00,100.00,108.44,0.52,-156.43,-3.31,-36.73,96.39, 
12/05/2018 16:56:06,91.40,-5.765122,-35.204151,ovf,166.67,90.00,100.00,108.44,0.52,-156.86,-3.82,-31.71,96.76, 
12/05/2018 16:56:06,91.60,-5.765122,-35.204151,ovf,166.67,90.00,100.00,114.90,0.44,-153.95,-4.94,-30.85,100.17, 
12/05/2018 16:56:06,91.80,-5.765122,-35.204151,ovf,166.67,90.00,100.00,114.90,0.44,-150.04,-8.27,-39.05,97.63, 
12/05/2018 16:56:07,92.00,-5.765122,-35.204151,ovf,166.67,90.00,100.00,114.90,0.44,-148.79,-3.57,-48.09,103.29, 
12/05/2018 16:56:07,92.20,-5.765122,-35.204151,ovf,166.67,90.00,100.00,114.90,0.44,-147.68,-3.75,-53.99,104.39, 
12/05/2018 16:56:07,92.40,-5.765122,-35.204151,ovf,166.67,90.00,100.00,264.57,0.17,-148.48,-5.12,-58.83,103.16, 
12/05/2018 16:56:07,92.60,-5.765122,-35.204151,ovf,166.67,90.00,100.00,264.57,0.17,-149.41,-7.48,-60.20,99.78, 
12/05/2018 16:56:08,92.80,-5.765120,-35.204151,ovf,166.67,90.00,100.00,264.57,0.17,-151.85,-6.74,-59.80,98.98, 
12/05/2018 16:56:08,93.00,-5.765120,-35.204151,ovf,166.67,90.00,100.00,264.57,0.17,-153.61,-4.64,-38.73,99.55, 
12/05/2018 16:56:08,93.20,-5.765120,-35.204151,ovf,166.67,90.00,100.00,350.05,0.57,-141.52,2.39,-15.11,155.31, 
12/05/2018 16:56:08,93.40,-5.765120,-35.204151,ovf,166.67,90.00,100.00,350.05,0.57,-120.54,5.13,-14.92,-169.66, 
12/05/2018 16:56:08,93.60,-5.765120,-35.204151,ovf,166.67,90.00,100.00,350.05,0.57,-115.67,9.02,-18.04,164.84, 
12/05/2018 16:56:09,93.80,-5.765122,-35.204151,ovf,166.67,90.00,100.00,350.05,0.57,-103.37,11.35,-10.56,-170.42, 
12/05/2018 16:56:09,94.00,-5.765122,-35.204151,ovf,166.67,72.00,100.00,350.05,0.57,-89.69,11.86,-8.72,-161.16, 
12/05/2018 16:56:09,94.20,-5.765122,-35.204151,ovf,166.67,54.00,100.00,350.05,0.57,-77.64,8.33,1.38,-134.04, 
12/05/2018 16:56:09,94.40,-5.765122,-35.204151,ovf,166.67,42.00,100.00,265.54,0.72,-70.23,9.16,3.10,-143.52, 
12/05/2018 16:56:10,94.60,-5.765122,-35.204151,ovf,166.67,21.00,100.00,265.54,0.72,-57.74,10.50,-2.66,-143.96, 
12/05/2018 16:56:10,94.80,-5.765122,-35.204151,ovf,166.67,9.00,100.00,73.27,0.54,-49.01,11.49,-3.10,-140.11, 
12/05/2018 16:56:10,95.00,-5.765122,-35.204151,ovf,166.67,-3.00,100.00,73.27,0.54,-41.07,6.05,-4.28,-127.80, 
12/05/2018 16:56:10,95.20,-5.765122,-35.204151,ovf,166.67,-15.00,100.00,73.27,0.54,-35.97,8.76,-2.79,-129.42, 
12/05/2018 16:56:11,95.40,-5.765123,-35.204147,ovf,166.67,-18.00,100.00,73.27,0.54,-36.48,7.20,-5.52,-136.88, 
12/05/2018 16:56:11,95.60,-5.765123,-35.204147,ovf,166.67,-15.00,100.00,338.66,0.06,-38.26,6.43,-6.75,-145.64, 
12/05/2018 16:56:11,95.80,-5.765123,-35.204147,ovf,166.67,-9.00,100.00,338.66,0.06,-43.39,4.21,-3.69,-147.10, 
12/05/2018 16:56:11,96.00,-5.765123,-35.204147,ovf,166.67,0.00,100.00,338.66,0.06,-48.58,2.91,2.92,-151.93, 
12/05/2018 16:56:12,96.20,-5.765125,-35.204143,ovf,166.67,6.00,100.00,338.66,0.06,-51.70,3.95,26.90,-129.31, 
12/05/2018 16:56:12,96.40,-5.765125,-35.204143,ovf,166.67,0.00,100.00,174.36,0.24,-43.66,10.87,24.15,-135.81, 
12/05/2018 16:56:12,96.60,-5.765125,-35.204143,ovf,166.67,-6.00,100.00,174.36,0.24,-44.43,8.49,27.88,-139.07, 
12/05/2018 16:56:12,96.80,-5.765125,-35.204143,ovf,166.67,-9.00,100.00,174.36,0.24,-36.06,11.94,36.05,-126.15, 
12/05/2018 16:56:13,97.00,-5.765127,-35.204143,ovf,166.67,-15.00,100.00,174.36,0.24,-36.59,11.89,34.63,-133.47, 
12/05/2018 16:56:13,97.20,-5.765127,-35.204143,ovf,166.67,-15.00,100.00,230.21,1.41,-36.04,14.13,32.77,-141.46, 
12/05/2018 16:56:13,97.40,-5.765127,-35.204143,ovf,166.67,-12.00,100.00,230.21,1.41,-35.84,15.10,40.96,-131.17, 
12/05/2018 16:56:13,97.60,-5.765127,-35.204143,ovf,166.67,-18.00,100.00,230.21,1.41,-32.80,17.13,41.69,-133.50, 
12/05/2018 16:56:14,97.80,-5.765127,-35.204147,ovf,166.67,-21.00,100.00,230.21,1.41,-30.08,21.76,53.52,-125.73, 
12/05/2018 16:56:14,98.00,-5.765127,-35.204147,ovf,166.67,-24.00,100.00,230.21,1.41,-30.64,20.29,47.80,-129.22, 
12/05/2018 16:56:14,98.20,-5.765127,-35.204147,ovf,166.67,-21.00,100.00,230.21,1.41,-33.63,24.22,44.35,-138.23, 
12/05/2018 16:56:14,98.40,-5.765127,-35.204147,ovf,166.67,-9.00,100.00,136.14,0.09,-45.72,27.21,32.81,-171.63, 
12/05/2018 16:56:15,98.60,-5.765128,-35.204143,ovf,166.67,12.00,100.00,136.14,0.09,-57.77,34.76,27.81,164.31, 
12/05/2018 16:56:15,98.80,-5.765128,-35.204143,ovf,166.67,15.00,100.00,186.23,0.35,-57.61,33.93,34.71,-173.75, 
12/05/2018 16:56:15,99.00,-5.765128,-35.204143,ovf,166.67,18.00,100.00,186.23,0.35,-59.37,33.16,33.70,-175.75, 
12/05/2018 16:56:15,99.20,-5.765128,-35.204143,ovf,166.67,15.00,100.00,186.23,0.35,-56.09,34.00,37.93,-163.49, 
12/05/2018 16:56:16,99.40,-5.765130,-35.204143,ovf,166.67,9.00,100.00,186.23,0.35,-52.22,29.12,39.79,-153.53, 
12/05/2018 16:56:16,99.60,-5.765130,-35.204143,ovf,166.67,3.00,100.00,115.76,0.26,-48.00,26.44,42.82,-144.77, 
12/05/2018 16:56:16,99.80,-5.765130,-35.204143,ovf,166.67,-3.00,100.00,115.76,0.26,-44.87,24.87,41.73,-143.82, 
12/05/2018 16:56:16,100.00,-5.765130,-35.204143,ovf,166.67,-3.00,100.00,115.76,0.26,-45.33,24.10,39.05,-145.64, 
12/05/2018 16:56:17,100.20,-5.765132,-35.204143,ovf,166.67,-3.00,100.00,115.76,0.26,-42.38,25.39,38.93,-148.55, 6.65,262.0,0.000,0.00,0,0¿ﬂÒo
12/05/2018 16:56:17,100.40,-5.765132,-35.204143,ovf,166.67,-6.00,100.00,128.93,0.26,-42.08,24.44,41.82,-142.48, ¿S§
12/05/2018 16:56:17,100.60,-5.765132,-35.204143,ovf,166.67,-6.00,100.00,128.93,0.26,-41.08,22.44,42.05,-141.69, 
12/05/2018 16:56:17,100.80,-5.765132,-35.204143,ovf,166.67,-12.00,100.00,128.93,0.26,-36.64,22.23,42.55,-139.30, 
12/05/2018 16:56:18,101.00,-5.765133,-35.204147,ovf,166.67,-15.00,100.00,128.93,0.26,-34.09,23.44,39.32,-138.10, 
12/05/2018 16:56:18,101.20,-5.765133,-35.204147,ovf,166.67,-15.00,100.00,237.75,0.85,-37.30,24.71,24.28,-156.63, 
12/05/2018 16:56:18,101.40,-5.765133,-35.204147,ovf,166.67,-6.00,100.00,237.75,0.85,-44.65,19.92,-3.38,173.72, 
12/05/2018 16:56:18,101.60,-5.765133,-35.204147,ovf,166.67,12.00,100.00,237.75,0.85,-61.96,12.22,-12.13,130.49, 
12/05/2018 16:56:19,101.80,-5.765133,-35.204151,ovf,166.67,42.00,100.00,237.75,0.85,-78.44,14.62,-13.20,124.49, 
12/05/2018 16:56:19,102.00,-5.765133,-35.204151,ovf,166.67,57.00,100.00,237.75,0.85,-88.36,18.17,-7.36,136.54, 
12/05/2018 16:56:19,102.20,-5.765133,-35.204151,ovf,166.67,78.00,100.00,237.75,0.85,-102.61,16.14,-6.96,121.04, 
12/05/2018 16:56:19,102.40,-5.765133,-35.204151,ovf,166.67,90.00,100.00,262.25,0.30,-109.52,10.41,-0.86,119.29, 
12/05/2018 16:56:20,102.60,-5.765133,-35.204147,ovf,166.67,90.00,100.00,262.25,0.30,-110.53,14.38,5.22,141.48, 
12/05/2018 16:56:20,102.80,-5.765133,-35.204147,ovf,166.67,90.00,100.00,26.40,0.94,-106.95,16.52,18.63,176.82, 
12/05/2018 16:56:20,103.00,-5.765133,-35.204147,ovf,166.67,84.00,100.00,26.40,0.94,-100.26,18.90,4.16,161.80, 
12/05/2018 16:56:20,103.20,-5.765133,-35.204147,ovf,166.67,81.00,100.00,26.40,0.94,-100.53,5.63,-0.82,136.99, 
12/05/2018 16:56:21,103.40,-5.765133,-35.204147,ovf,166.67,84.00,100.00,26.40,0.94,-103.82,-4.39,-2.28,107.12, 
12/05/2018 16:56:21,103.60,-5.765133,-35.204147,ovf,166.67,90.00,100.00,222.84,0.07,-107.00,0.70,-3.20,150.63, 
12/05/2018 16:56:21,103.80,-5.765133,-35.204147,ovf,166.67,90.00,100.00,222.84,0.07,-102.78,7.58,15.56,-161.67, 
12/05/2018 16:56:21,104.00,-5.765133,-35.204147,ovf,166.67,69.00,100.00,222.84,0.07,-81.82,15.72,24.79,-134.00, 
12/05/2018 16:56:22,104.20,-5.765132,-35.204143,ovf,166.67,33.00,100.00,222.84,0.07,-61.45,20.77,20.52,-134.10, 
12/05/2018 16:56:22,104.40,-5.765132,-35.204143,ovf,166.67,12.00,100.00,96.36,1.28,-58.08,26.42,3.75,-153.07, 
12/05/2018 16:56:22,104.60,-5.765132,-35.204143,ovf,166.67,36.00,100.00,96.36,1.28,-81.64,24.61,-5.79,161.89, 
12/05/2018 16:56:22,104.80,-5.765132,-35.204143,ovf,166.67,66.00,100.00,96.36,1.28,-94.09,15.65,-9.57,127.92, 
12/05/2018 16:56:23,105.00,-5.765130,-35.204143,ovf,166.67,78.00,100.00,96.36,1.28,-97.37,10.86,-15.60,130.10, 
12/05/2018 16:56:23,105.20,-5.765130,-35.204143,ovf,166.67,66.00,100.00,320.25,0.61,-97.56,5.53,-27.38,116.92, 
12/05/2018 16:56:23,105.40,-5.765130,-35.204143,ovf,166.67,90.00,100.00,320.25,0.61,-125.49,5.82,-22.40,97.01, 
12/05/2018 16:56:23,105.60,-5.765130,-35.204143,ovf,166.67,90.00,100.00,320.25,0.61,-139.04,10.84,-19.09,100.70, 
12/05/2018 16:56:24,105.80,-5.765127,-35.204143,ovf,166.67,90.00,100.00,320.25,0.61,-144.74,10.12,-16.68,98.67, 
12/05/2018 16:56:24,106.00,-5.765127,-35.204143,ovf,166.67,90.00,100.00,320.25,0.61,-152.41,9.68,-18.54,91.47, 
12/05/2018 16:56:24,106.20,-5.765127,-35.204143,ovf,166.67,90.00,100.00,320.25,0.61,-157.93,9.23,-20.68,86.57, 
12/05/2018 16:56:24,106.40,-5.765127,-35.204143,ovf,166.67,90.00,100.00,51.45,1.15,-161.88,10.25,-20.44,86.44, 
12/05/2018 16:56:25,106.60,-5.765125,-35.204143,ovf,166.67,90.00,100.00,51.45,1.15,-164.47,7.56,-21.26,84.21, 
12/05/2018 16:56:25,106.80,-5.765125,-35.204143,ovf,166.67,90.00,100.00,51.45,1.15,-163.58,8.11,-17.23,85.22, 
12/05/2018 16:56:25,107.00,-5.765125,-35.204143,ovf,166.67,90.00,100.00,32.90,0.20,-162.62,9.41,-16.07,89.85, 
12/05/2018 16:56:25,107.20,-5.765125,-35.204143,ovf,166.67,90.00,100.00,32.90,0.20,-163.71,9.99,-14.37,86.64, 
12/05/2018 16:56:26,107.40,-5.765123,-35.204143,ovf,166.67,90.00,100.00,32.90,0.20,-164.32,10.92,-13.00,85.57, 
12/05/2018 16:56:26,107.60,-5.765123,-35.204143,ovf,166.67,90.00,100.00,32.90,0.20,-160.24,12.44,-11.83,95.22, 
12/05/2018 16:56:26,107.80,-5.765123,-35.204143,ovf,166.67,90.00,100.00,302.13,0.33,-161.48,10.31,-11.95,95.02, 
12/05/2018 16:56:26,108.00,-5.765123,-35.204143,ovf,166.67,90.00,100.00,302.13,0.33,-163.63,8.34,-12.24,88.15, 
12/05/2018 16:56:27,108.20,-5.765123,-35.204143,ovf,166.67,90.00,100.00,302.13,0.33,-165.25,9.81,-11.52,86.34, 
